Fri Mar 30 17:54:20 2012 :{"class":"VERSION","release":"2.95","rev":"2011-07-27T11:57:19","proto_major":3,"proto_minor":3}
Fri Mar 30 17:54:20 2012 :{"class":"DEVICES","devices":[{"class":"DEVICE","path":"/dev/ttyO1"}]}
Fri Mar 30 17:54:20 2012 :{"class":"WATCH","enable":true,"json":true,"nmea":true,"raw":0,"scaled":false,"timing":false}
Fri Mar 30 17:54:20 2012 :$GPRMC,204626.00,A,3957.11008,N,07511.39463,W,0.066,265.82,080412,,,A*75
Fri Mar 30 17:54:20 2012 :$GPVTG,265.82,T,,M,0.066,N,0.123,K,A*36
Fri Mar 30 17:54:20 2012 :$GPGGA,204626.00,3957.11008,N,07511.39463,W,1,08,1.89,14.0,M,-33.9,M,,*5A
Fri Mar 30 17:54:20 2012 :$GPGSA,A,3,31,14,32,46,30,29,16,51,,,,,4.38,1.89,3.95*0D
Fri Mar 30 17:54:20 2012 :$GPGSV,3,1,09,48,16,248,,31,63,032,45,14,35,119,44,32,50,261,48*77
Fri Mar 30 17:54:20 2012 :$GPGSV,3,2,09,46,41,215,41,30,64,201,48,29,21,075,28,16,35,203,45*7A
Fri Mar 30 17:54:20 2012 :$GPGSV,3,3,09,51,33,224,43*47
Fri Mar 30 17:54:20 2012 :{"class":"SKY","tag":"GSV","device":"/dev/ttyO1","xdop":0.67,"ydop":1.08,"vdop":1.68,"tdop":1.17,"hdop":1.28,"gdop":2.41,"pdop":2.11,"satellites":[{"PRN":48,"el":16,"az":248,"ss":0,"used":false},{"PRN":31,"el":63,"az":32,"ss":45,"used":true},{"PRN":14,"el":35,"az":119,"ss":44,"used":true},{"PRN":32,"el":50,"az":261,"ss":48,"used":true},{"PRN":46,"el":41,"az":215,"ss":41,"used":true},{"PRN":30,"el":64,"az":201,"ss":48,"used":true},{"PRN":29,"el":21,"az":75,"ss":28,"used":true},{"PRN":16,"el":35,"az":203,"ss":45,"used":true},{"PRN":51,"el":33,"az":224,"ss":43,"used":true}]}
Fri Mar 30 17:54:20 2012 :$GPGLL,3957.11008,N,07511.39463,W,204626.00,A,A*76
Fri Mar 30 17:54:20 2012 :{"class":"TPV","tag":"GLL","device":"/dev/ttyO1","time":1333917986.000,"ept":0.005,"lat":39.951834667,"lon":-75.189910500,"alt":14.000,"epx":10.108,"epy":16.273,"epv":38.532,"track":265.8200,"speed":0.034,"climb":0.000,"eps":32.55,"mode":3}
Fri Mar 30 17:54:20 2012 :$GPZDA,204626.00,08,04,2012,00,00*6F
Fri Mar 30 17:54:21 2012 :$GPRMC,204627.00,A,3957.11006,N,07511.39459,W,0.041,268.11,080412,,,A*71
Fri Mar 30 17:54:21 2012 :$GPVTG,268.11,T,,M,0.041,N,0.077,K,A*34
Fri Mar 30 17:54:21 2012 :$GPGGA,204627.00,3957.11006,N,07511.39459,W,1,08,1.89,13.8,M,-33.9,M,,*53
Fri Mar 30 17:54:21 2012 :$GPGSA,A,3,31,14,32,46,30,29,16,51,,,,,4.38,1.89,3.95*0D
Fri Mar 30 17:54:21 2012 :$GPGSV,3,1,09,48,16,248,,31,63,032,46,14,35,119,44,32,50,261,48*74
Fri Mar 30 17:54:21 2012 :$GPGSV,3,2,09,46,41,215,41,30,64,201,48,29,21,075,27,16,35,203,45*75
Fri Mar 30 17:54:21 2012 :$GPGSV,3,3,09,51,33,224,43*47
Fri Mar 30 17:54:21 2012 :{"class":"SKY","tag":"GSV","device":"/dev/ttyO1","xdop":0.67,"ydop":1.08,"vdop":1.68,"tdop":1.17,"hdop":1.28,"gdop":2.41,"pdop":2.11,"satellites":[{"PRN":48,"el":16,"az":248,"ss":0,"used":false},{"PRN":31,"el":63,"az":32,"ss":46,"used":true},{"PRN":14,"el":35,"az":119,"ss":44,"used":true},{"PRN":32,"el":50,"az":261,"ss":48,"used":true},{"PRN":46,"el":41,"az":215,"ss":41,"used":true},{"PRN":30,"el":64,"az":201,"ss":48,"used":true},{"PRN":29,"el":21,"az":75,"ss":27,"used":true},{"PRN":16,"el":35,"az":203,"ss":45,"used":true},{"PRN":51,"el":33,"az":224,"ss":43,"used":true}]}
Fri Mar 30 17:54:21 2012 :$GPGLL,3957.11006,N,07511.39459,W,204627.00,A,A*70
Fri Mar 30 17:54:21 2012 :{"class":"TPV","tag":"GLL","device":"/dev/ttyO1","time":1333917987.000,"ept":0.005,"lat":39.951834333,"lon":-75.189909833,"alt":13.800,"epx":10.108,"epy":16.273,"epv":38.532,"track":268.1100,"speed":0.021,"climb":0.000,"eps":32.55,"mode":3}
Fri Mar 30 17:54:21 2012 :$GPZDA,204627.00,08,04,2012,00,00*6E
Fri Mar 30 17:54:22 2012 :$GPRMC,204628.00,A,3957.11004,N,07511.39455,W,0.021,266.89,080412,,,A*79
Fri Mar 30 17:54:22 2012 :$GPVTG,266.89,T,,M,0.021,N,0.040,K,A*39
Fri Mar 30 17:54:22 2012 :$GPGGA,204628.00,3957.11004,N,07511.39455,W,1,08,1.88,13.5,M,-33.9,M,,*5E
Fri Mar 30 17:54:22 2012 :$GPGSA,A,3,31,14,32,46,30,29,16,51,,,,,4.38,1.88,3.95*0C
Fri Mar 30 17:54:22 2012 :$GPGSV,3,1,09,48,16,248,,31,63,032,46,14,35,119,44,32,50,261,48*74
Fri Mar 30 17:54:22 2012 :$GPGSV,3,2,09,46,41,215,41,30,64,201,47,29,21,075,24,16,35,203,45*79
Fri Mar 30 17:54:22 2012 :$GPGSV,3,3,09,51,33,224,43*47
Fri Mar 30 17:54:22 2012 :{"class":"SKY","tag":"GSV","device":"/dev/ttyO1","xdop":0.67,"ydop":1.08,"vdop":1.68,"tdop":1.17,"hdop":1.28,"gdop":2.41,"pdop":2.11,"satellites":[{"PRN":48,"el":16,"az":248,"ss":0,"used":false},{"PRN":31,"el":63,"az":32,"ss":46,"used":true},{"PRN":14,"el":35,"az":119,"ss":44,"used":true},{"PRN":32,"el":50,"az":261,"ss":48,"used":true},{"PRN":46,"el":41,"az":215,"ss":41,"used":true},{"PRN":30,"el":64,"az":201,"ss":47,"used":true},{"PRN":29,"el":21,"az":75,"ss":24,"used":true},{"PRN":16,"el":35,"az":203,"ss":45,"used":true},{"PRN":51,"el":33,"az":224,"ss":43,"used":true}]}
Fri Mar 30 17:54:22 2012 :$GPGLL,3957.11004,N,07511.39455,W,204628.00,A,A*71
Fri Mar 30 17:54:22 2012 :{"class":"TPV","tag":"GLL","device":"/dev/ttyO1","time":1333917988.000,"ept":0.005,"lat":39.951834000,"lon":-75.189909167,"alt":13.500,"epx":10.108,"epy":16.273,"epv":38.532,"track":266.8900,"speed":0.011,"climb":0.000,"eps":32.55,"mode":3}
Fri Mar 30 17:54:22 2012 :$GPZDA,204628.00,08,04,2012,00,00*61
Fri Mar 30 17:54:23 2012 :$GPRMC,204629.00,A,3957.11001,N,07511.39452,W,0.042,265.61,080412,,,A*7A
Fri Mar 30 17:54:23 2012 :$GPVTG,265.61,T,,M,0.042,N,0.078,K,A*32
Fri Mar 30 17:54:23 2012 :$GPGGA,204629.00,3957.11001,N,07511.39452,W,1,08,1.88,13.3,M,-33.9,M,,*5B
Fri Mar 30 17:54:23 2012 :$GPGSA,A,3,31,14,32,46,30,29,16,51,,,,,4.37,1.88,3.95*03
Fri Mar 30 17:54:23 2012 :$GPGSV,2,1,08,31,63,032,45,14,35,119,44,32,50,261,48,46,41,215,41*76
Fri Mar 30 17:54:23 2012 :$GPGSV,2,2,08,30,64,201,48,29,21,075,25,16,35,203,45,51,33,224,44*73
Fri Mar 30 17:54:23 2012 :{"class":"SKY","tag":"GSV","device":"/dev/ttyO1","xdop":0.91,"ydop":1.20,"vdop":2.45,"tdop":1.80,"hdop":1.51,"gdop":3.39,"pdop":2.87,"satellites":[{"PRN":31,"el":63,"az":32,"ss":45,"used":true},{"PRN":14,"el":35,"az":119,"ss":44,"used":true},{"PRN":32,"el":50,"az":261,"ss":48,"used":true},{"PRN":46,"el":41,"az":215,"ss":41,"used":true},{"PRN":30,"el":64,"az":201,"ss":48,"used":true},{"PRN":29,"el":21,"az":75,"ss":25,"used":true},{"PRN":16,"el":35,"az":203,"ss":45,"used":true},{"PRN":51,"el":33,"az":224,"ss":44,"used":true}]}
Fri Mar 30 17:54:23 2012 :$GPGLL,3957.11001,N,07511.39452,W,204629.00,A,A*72
Fri Mar 30 17:54:23 2012 :{"class":"TPV","tag":"GLL","device":"/dev/ttyO1","time":1333917989.000,"ept":0.005,"lat":39.951833500,"lon":-75.189908667,"alt":13.300,"epx":10.108,"epy":16.273,"epv":38.532,"track":265.6100,"speed":0.022,"climb":0.000,"eps":32.55,"mode":3}
Fri Mar 30 17:54:23 2012 :$GPZDA,204629.00,08,04,2012,00,00*60
Fri Mar 30 17:54:24 2012 :$GPRMC,204630.00,A,3957.10997,N,07511.39449,W,0.054,265.03,080412,,,A*7C
Fri Mar 30 17:54:24 2012 :$GPVTG,265.03,T,,M,0.054,N,0.100,K,A*3F
Fri Mar 30 17:54:24 2012 :$GPGGA,204630.00,3957.10997,N,07511.39449,W,1,08,1.88,13.1,M,-33.9,M,,*5C
Fri Mar 30 17:54:24 2012 :$GPGSA,A,3,31,14,32,46,30,29,16,51,,,,,4.37,1.88,3.95*03
Fri Mar 30 17:54:24 2012 :$GPGSV,2,1,08,31,63,033,45,14,35,119,44,32,50,261,47,46,41,215,41*78
Fri Mar 30 17:54:24 2012 :$GPGSV,2,2,08,30,64,201,48,29,21,075,23,16,35,203,44,51,33,224,42*72
Fri Mar 30 17:54:24 2012 :{"class":"SKY","tag":"GSV","device":"/dev/ttyO1","xdop":0.91,"ydop":1.21,"vdop":2.44,"tdop":1.80,"hdop":1.51,"gdop":3.39,"pdop":2.87,"satellites":[{"PRN":31,"el":63,"az":33,"ss":45,"used":true},{"PRN":14,"el":35,"az":119,"ss":44,"used":true},{"PRN":32,"el":50,"az":261,"ss":47,"used":true},{"PRN":46,"el":41,"az":215,"ss":41,"used":true},{"PRN":30,"el":64,"az":201,"ss":48,"used":true},{"PRN":29,"el":21,"az":75,"ss":23,"used":true},{"PRN":16,"el":35,"az":203,"ss":44,"used":true},{"PRN":51,"el":33,"az":224,"ss":42,"used":true}]}
Fri Mar 30 17:54:24 2012 :$GPGLL,3957.10997,N,07511.39449,W,204630.00,A,A*77
Fri Mar 30 17:54:24 2012 :{"class":"TPV","tag":"GLL","device":"/dev/ttyO1","time":1333917990.000,"ept":0.005,"lat":39.951832833,"lon":-75.189908167,"alt":13.100,"epx":13.643,"epy":18.021,"epv":56.274,"track":265.0300,"speed":0.028,"climb":0.000,"eps":34.29,"mode":3}
Fri Mar 30 17:54:24 2012 :$GPZDA,204630.00,08,04,2012,00,00*68
Fri Mar 30 17:54:25 2012 :$GPRMC,204631.00,A,3957.10995,N,07511.39447,W,0.046,263.98,080412,,,A*76
Fri Mar 30 17:54:25 2012 :$GPVTG,263.98,T,,M,0.046,N,0.086,K,A*37
Fri Mar 30 17:54:25 2012 :$GPGGA,204631.00,3957.10995,N,07511.39447,W,1,08,1.89,12.9,M,-33.9,M,,*59
Fri Mar 30 17:54:25 2012 :$GPGSA,A,3,31,14,32,46,30,29,16,51,,,,,4.37,1.89,3.95*02
Fri Mar 30 17:54:25 2012 :$GPGSV,2,1,08,31,63,033,45,14,35,119,44,32,50,260,48,46,41,215,41*76
Fri Mar 30 17:54:25 2012 :$GPGSV,2,2,08,30,64,201,48,29,21,075,25,16,35,203,45,51,33,224,45*72
Fri Mar 30 17:54:25 2012 :{"class":"SKY","tag":"GSV","device":"/dev/ttyO1","xdop":0.91,"ydop":1.21,"vdop":2.44,"tdop":1.80,"hdop":1.52,"gdop":3.40,"pdop":2.88,"satellites":[{"PRN":31,"el":63,"az":33,"ss":45,"used":true},{"PRN":14,"el":35,"az":119,"ss":44,"used":true},{"PRN":32,"el":50,"az":260,"ss":48,"used":true},{"PRN":46,"el":41,"az":215,"ss":41,"used":true},{"PRN":30,"el":64,"az":201,"ss":48,"used":true},{"PRN":29,"el":21,"az":75,"ss":25,"used":true},{"PRN":16,"el":35,"az":203,"ss":45,"used":true},{"PRN":51,"el":33,"az":224,"ss":45,"used":true}]}
Fri Mar 30 17:54:25 2012 :$GPGLL,3957.10995,N,07511.39447,W,204631.00,A,A*7A
Fri Mar 30 17:54:25 2012 :{"class":"TPV","tag":"GLL","device":"/dev/ttyO1","time":1333917991.000,"ept":0.005,"lat":39.951832500,"lon":-75.189907833,"alt":12.900,"epx":13.638,"epy":18.084,"epv":56.163,"track":263.9800,"speed":0.024,"climb":0.000,"eps":36.10,"mode":3}
Fri Mar 30 17:54:25 2012 :$GPZDA,204631.00,08,04,2012,00,00*69
Fri Mar 30 17:54:26 2012 :$GPRMC,204632.00,A,3957.10993,N,07511.39446,W,0.058,262.99,080412,,,A*7D
Fri Mar 30 17:54:26 2012 :$GPVTG,262.99,T,,M,0.058,N,0.108,K,A*3F
Fri Mar 30 17:54:26 2012 :$GPGGA,204632.00,3957.10993,N,07511.39446,W,1,08,1.88,12.8,M,-33.9,M,,*5D
Fri Mar 30 17:54:26 2012 :$GPGSA,A,3,31,14,32,46,30,29,16,51,,,,,4.37,1.88,3.95*03
Fri Mar 30 17:54:26 2012 :$GPGSV,2,1,08,31,63,033,45,14,35,119,44,32,50,260,48,46,41,215,41*76
Fri Mar 30 17:54:26 2012 :$GPGSV,2,2,08,30,64,201,48,29,21,075,25,16,35,203,45,51,33,224,44*73
Fri Mar 30 17:54:26 2012 :{"class":"SKY","tag":"GSV","device":"/dev/ttyO1","xdop":0.91,"ydop":1.21,"vdop":2.44,"tdop":1.80,"hdop":1.52,"gdop":3.40,"pdop":2.88,"satellites":[{"PRN":31,"el":63,"az":33,"ss":45,"used":true},{"PRN":14,"el":35,"az":119,"ss":44,"used":true},{"PRN":32,"el":50,"az":260,"ss":48,"used":true},{"PRN":46,"el":41,"az":215,"ss":41,"used":true},{"PRN":30,"el":64,"az":201,"ss":48,"used":true},{"PRN":29,"el":21,"az":75,"ss":25,"used":true},{"PRN":16,"el":35,"az":203,"ss":45,"used":true},{"PRN":51,"el":33,"az":224,"ss":44,"used":true}]}
Fri Mar 30 17:54:26 2012 :$GPGLL,3957.10993,N,07511.39446,W,204632.00,A,A*7E
Fri Mar 30 17:54:26 2012 :{"class":"TPV","tag":"GLL","device":"/dev/ttyO1","time":1333917992.000,"ept":0.005,"lat":39.951832167,"lon":-75.189907667,"alt":12.800,"epx":13.715,"epy":18.204,"epv":56.211,"track":262.9900,"speed":0.030,"climb":0.000,"eps":36.29,"mode":3}
Fri Mar 30 17:54:26 2012 :$GPZDA,204632.00,08,04,2012,00,00*6A
Fri Mar 30 17:54:27 2012 :$GPRMC,204633.00,A,3957.10991,N,07511.39445,W,0.043,261.88,080412,,,A*74
Fri Mar 30 17:54:27 2012 :$GPVTG,261.88,T,,M,0.043,N,0.079,K,A*31
Fri Mar 30 17:54:27 2012 :$GPGGA,204633.00,3957.10991,N,07511.39445,W,1,08,1.88,12.8,M,-33.9,M,,*5D
Fri Mar 30 17:54:27 2012 :$GPGSA,A,3,31,14,32,46,30,29,16,51,,,,,4.37,1.88,3.95*03
Fri Mar 30 17:54:27 2012 :$GPGSV,2,1,08,31,63,033,45,14,35,119,44,32,50,260,48,46,41,215,41*76
Fri Mar 30 17:54:27 2012 :$GPGSV,2,2,08,30,64,201,47,29,21,075,25,16,35,203,45,51,33,224,43*7B
Fri Mar 30 17:54:27 2012 :{"class":"SKY","tag":"GSV","device":"/dev/ttyO1","xdop":0.91,"ydop":1.21,"vdop":2.44,"tdop":1.80,"hdop":1.52,"gdop":3.40,"pdop":2.88,"satellites":[{"PRN":31,"el":63,"az":33,"ss":45,"used":true},{"PRN":14,"el":35,"az":119,"ss":44,"used":true},{"PRN":32,"el":50,"az":260,"ss":48,"used":true},{"PRN":46,"el":41,"az":215,"ss":41,"used":true},{"PRN":30,"el":64,"az":201,"ss":47,"used":true},{"PRN":29,"el":21,"az":75,"ss":25,"used":true},{"PRN":16,"el":35,"az":203,"ss":45,"used":true},{"PRN":51,"el":33,"az":224,"ss":43,"used":true}]}
Fri Mar 30 17:54:27 2012 :$GPGLL,3957.10991,N,07511.39445,W,204633.00,A,A*7E
Fri Mar 30 17:54:27 2012 :{"class":"TPV","tag":"GLL","device":"/dev/ttyO1","time":1333917993.000,"ept":0.005,"lat":39.951831833,"lon":-75.189907500,"alt":12.800,"epx":13.715,"epy":18.204,"epv":56.211,"track":261.8800,"speed":0.022,"climb":0.000,"eps":36.41,"mode":3}
Fri Mar 30 17:54:27 2012 :$GPZDA,204633.00,08,04,2012,00,00*6B
Fri Mar 30 17:54:28 2012 :$GPRMC,204634.00,A,3957.10988,N,07511.39442,W,0.025,259.66,080412,,,A*77
Fri Mar 30 17:54:28 2012 :$GPVTG,259.66,T,,M,0.025,N,0.047,K,A*37
Fri Mar 30 17:54:28 2012 :$GPGGA,204634.00,3957.10988,N,07511.39442,W,1,08,1.88,12.9,M,-33.9,M,,*54
Fri Mar 30 17:54:28 2012 :$GPGSA,A,3,31,14,32,46,30,29,16,51,,,,,4.37,1.88,3.94*02
Fri Mar 30 17:54:28 2012 :$GPGSV,2,1,08,31,63,033,45,14,35,119,44,32,50,260,48,46,41,215,41*76
Fri Mar 30 17:54:28 2012 :$GPGSV,2,2,08,30,64,201,47,29,21,075,24,16,35,203,45,51,33,224,43*7A
Fri Mar 30 17:54:28 2012 :{"class":"SKY","tag":"GSV","device":"/dev/ttyO1","xdop":0.91,"ydop":1.21,"vdop":2.44,"tdop":1.80,"hdop":1.52,"gdop":3.40,"pdop":2.88,"satellites":[{"PRN":31,"el":63,"az":33,"ss":45,"used":true},{"PRN":14,"el":35,"az":119,"ss":44,"used":true},{"PRN":32,"el":50,"az":260,"ss":48,"used":true},{"PRN":46,"el":41,"az":215,"ss":41,"used":true},{"PRN":30,"el":64,"az":201,"ss":47,"used":true},{"PRN":29,"el":21,"az":75,"ss":24,"used":true},{"PRN":16,"el":35,"az":203,"ss":45,"used":true},{"PRN":51,"el":33,"az":224,"ss":43,"used":true}]}
Fri Mar 30 17:54:28 2012 :$GPGLL,3957.10988,N,07511.39442,W,204634.00,A,A*76
Fri Mar 30 17:54:28 2012 :{"class":"TPV","tag":"GLL","device":"/dev/ttyO1","time":1333917994.000,"ept":0.005,"lat":39.951831333,"lon":-75.189907000,"alt":12.900,"epx":13.715,"epy":18.204,"epv":56.211,"track":259.6600,"speed":0.013,"climb":0.000,"eps":36.41,"mode":3}
Fri Mar 30 17:54:28 2012 :$GPZDA,204634.00,08,04,2012,00,00*6C
Fri Mar 30 17:54:29 2012 :$GPRMC,204635.00,A,3957.10983,N,07511.39439,W,0.053,258.06,080412,,,A*77
Fri Mar 30 17:54:29 2012 :$GPVTG,258.06,T,,M,0.053,N,0.098,K,A*33
Fri Mar 30 17:54:29 2012 :$GPGGA,204635.00,3957.10983,N,07511.39439,W,1,08,1.88,12.9,M,-33.9,M,,*52
Fri Mar 30 17:54:29 2012 :$GPGSA,A,3,31,14,32,46,30,29,16,51,,,,,4.37,1.88,3.94*02
Fri Mar 30 17:54:29 2012 :$GPGSV,2,1,08,31,63,033,45,14,35,119,44,32,50,260,48,46,41,215,40*77
Fri Mar 30 17:54:29 2012 :$GPGSV,2,2,08,30,64,201,48,29,21,075,21,16,35,203,45,51,33,224,43*70
Fri Mar 30 17:54:29 2012 :{"class":"SKY","tag":"GSV","device":"/dev/ttyO1","xdop":0.91,"ydop":1.21,"vdop":2.44,"tdop":1.80,"hdop":1.52,"gdop":3.40,"pdop":2.88,"satellites":[{"PRN":31,"el":63,"az":33,"ss":45,"used":true},{"PRN":14,"el":35,"az":119,"ss":44,"used":true},{"PRN":32,"el":50,"az":260,"ss":48,"used":true},{"PRN":46,"el":41,"az":215,"ss":40,"used":true},{"PRN":30,"el":64,"az":201,"ss":48,"used":true},{"PRN":29,"el":21,"az":75,"ss":21,"used":true},{"PRN":16,"el":35,"az":203,"ss":45,"used":true},{"PRN":51,"el":33,"az":224,"ss":43,"used":true}]}
Fri Mar 30 17:54:29 2012 :$GPGLL,3957.10983,N,07511.39439,W,204635.00,A,A*70
Fri Mar 30 17:54:29 2012 :{"class":"TPV","tag":"GLL","device":"/dev/ttyO1","time":1333917995.000,"ept":0.005,"lat":39.951830500,"lon":-75.189906500,"alt":12.900,"epx":13.715,"epy":18.204,"epv":56.211,"track":258.0600,"speed":0.027,"climb":0.000,"eps":36.41,"mode":3}
Fri Mar 30 17:54:29 2012 :$GPZDA,204635.00,08,04,2012,00,00*6D
Fri Mar 30 17:54:30 2012 :$GPRMC,204636.00,A,3957.10977,N,07511.39436,W,0.058,256.56,080412,,,A*70
Fri Mar 30 17:54:30 2012 :$GPVTG,256.56,T,,M,0.058,N,0.108,K,A*3B
Fri Mar 30 17:54:30 2012 :$GPGGA,204636.00,3957.10977,N,07511.39436,W,1,08,1.89,13.0,M,-33.9,M,,*5C
Fri Mar 30 17:54:30 2012 :$GPGSA,A,3,31,14,32,46,30,29,16,51,,,,,4.37,1.89,3.94*03
Fri Mar 30 17:54:30 2012 :$GPGSV,2,1,08,31,63,033,46,14,35,119,44,32,50,260,48,46,41,215,41*75
Fri Mar 30 17:54:30 2012 :$GPGSV,2,2,08,30,64,201,47,29,21,075,22,16,35,203,45,51,33,224,45*7A
Fri Mar 30 17:54:30 2012 :{"class":"SKY","tag":"GSV","device":"/dev/ttyO1","xdop":0.91,"ydop":1.21,"vdop":2.44,"tdop":1.80,"hdop":1.52,"gdop":3.40,"pdop":2.88,"satellites":[{"PRN":31,"el":63,"az":33,"ss":46,"used":true},{"PRN":14,"el":35,"az":119,"ss":44,"used":true},{"PRN":32,"el":50,"az":260,"ss":48,"used":true},{"PRN":46,"el":41,"az":215,"ss":41,"used":true},{"PRN":30,"el":64,"az":201,"ss":47,"used":true},{"PRN":29,"el":21,"az":75,"ss":22,"used":true},{"PRN":16,"el":35,"az":203,"ss":45,"used":true},{"PRN":51,"el":33,"az":224,"ss":45,"used":true}]}
Fri Mar 30 17:54:30 2012 :$GPGLL,3957.10977,N,07511.39436,W,204636.00,A,A*77
Fri Mar 30 17:54:30 2012 :{"class":"TPV","tag":"GLL","device":"/dev/ttyO1","time":1333917996.000,"ept":0.005,"lat":39.951829500,"lon":-75.189906000,"alt":13.000,"epx":13.715,"epy":18.204,"epv":56.211,"track":256.5600,"speed":0.030,"climb":0.000,"eps":36.41,"mode":3}
Fri Mar 30 17:54:30 2012 :$GPZDA,204636.00,08,04,2012,00,00*6E
Fri Mar 30 17:54:31 2012 :$GPRMC,204637.00,A,3957.10970,N,07511.39435,W,0.064,255.84,080412,,,A*76
Fri Mar 30 17:54:31 2012 :$GPVTG,255.84,T,,M,0.064,N,0.119,K,A*38
Fri Mar 30 17:54:31 2012 :$GPGGA,204637.00,3957.10970,N,07511.39435,W,1,08,1.89,12.9,M,-33.9,M,,*51
Fri Mar 30 17:54:31 2012 :$GPGSA,A,3,31,14,32,46,30,29,16,51,,,,,4.37,1.89,3.94*03
Fri Mar 30 17:54:31 2012 :$GPGSV,2,1,08,31,63,033,46,14,35,119,44,32,50,260,48,46,41,215,41*75
Fri Mar 30 17:54:31 2012 :$GPGSV,2,2,08,30,64,201,48,29,21,075,23,16,35,203,45,51,33,224,44*75
Fri Mar 30 17:54:31 2012 :{"class":"SKY","tag":"GSV","device":"/dev/ttyO1","xdop":0.91,"ydop":1.21,"vdop":2.44,"tdop":1.80,"hdop":1.52,"gdop":3.40,"pdop":2.88,"satellites":[{"PRN":31,"el":63,"az":33,"ss":46,"used":true},{"PRN":14,"el":35,"az":119,"ss":44,"used":true},{"PRN":32,"el":50,"az":260,"ss":48,"used":true},{"PRN":46,"el":41,"az":215,"ss":41,"used":true},{"PRN":30,"el":64,"az":201,"ss":48,"used":true},{"PRN":29,"el":21,"az":75,"ss":23,"used":true},{"PRN":16,"el":35,"az":203,"ss":45,"used":true},{"PRN":51,"el":33,"az":224,"ss":44,"used":true}]}
Fri Mar 30 17:54:31 2012 :$GPGLL,3957.10970,N,07511.39435,W,204637.00,A,A*72
Fri Mar 30 17:54:31 2012 :{"class":"TPV","tag":"GLL","device":"/dev/ttyO1","time":1333917997.000,"ept":0.005,"lat":39.951828333,"lon":-75.189905833,"alt":12.900,"epx":13.715,"epy":18.204,"epv":56.211,"track":255.8400,"speed":0.033,"climb":0.000,"eps":36.41,"mode":3}
Fri Mar 30 17:54:31 2012 :$GPZDA,204637.00,08,04,2012,00,00*6F
Fri Mar 30 17:54:32 2012 :$GPRMC,204638.00,A,3957.10965,N,07511.39436,W,0.074,255.19,080412,,,A*7B
Fri Mar 30 17:54:32 2012 :$GPVTG,255.19,T,,M,0.074,N,0.137,K,A*31
Fri Mar 30 17:54:32 2012 :$GPGGA,204638.00,3957.10965,N,07511.39436,W,1,08,1.88,12.8,M,-33.9,M,,*59
Fri Mar 30 17:54:32 2012 :$GPGSA,A,3,31,14,32,46,30,29,16,51,,,,,4.37,1.88,3.94*02
Fri Mar 30 17:54:32 2012 :$GPGSV,2,1,08,31,63,033,46,14,35,119,44,32,50,260,48,46,41,215,41*75
Fri Mar 30 17:54:32 2012 :$GPGSV,2,2,08,30,64,201,48,29,21,075,23,16,35,203,45,51,33,224,43*72
Fri Mar 30 17:54:32 2012 :{"class":"SKY","tag":"GSV","device":"/dev/ttyO1","xdop":0.91,"ydop":1.21,"vdop":2.44,"tdop":1.80,"hdop":1.52,"gdop":3.40,"pdop":2.88,"satellites":[{"PRN":31,"el":63,"az":33,"ss":46,"used":true},{"PRN":14,"el":35,"az":119,"ss":44,"used":true},{"PRN":32,"el":50,"az":260,"ss":48,"used":true},{"PRN":46,"el":41,"az":215,"ss":41,"used":true},{"PRN":30,"el":64,"az":201,"ss":48,"used":true},{"PRN":29,"el":21,"az":75,"ss":23,"used":true},{"PRN":16,"el":35,"az":203,"ss":45,"used":true},{"PRN":51,"el":33,"az":224,"ss":43,"used":true}]}
Fri Mar 30 17:54:32 2012 :$GPGLL,3957.10965,N,07511.39436,W,204638.00,A,A*7A
Fri Mar 30 17:54:32 2012 :{"class":"TPV","tag":"GLL","device":"/dev/ttyO1","time":1333917998.000,"ept":0.005,"lat":39.951827500,"lon":-75.189906000,"alt":12.800,"epx":13.715,"epy":18.204,"epv":56.211,"track":255.1900,"speed":0.038,"climb":0.000,"eps":36.41,"mode":3}
Fri Mar 30 17:54:32 2012 :$GPZDA,204638.00,08,04,2012,00,00*60
Fri Mar 30 17:54:33 2012 :$GPRMC,204639.00,A,3957.10959,N,07511.39438,W,0.063,255.13,080412,,,A*77
Fri Mar 30 17:54:33 2012 :$GPVTG,255.13,T,,M,0.063,N,0.117,K,A*3F
Fri Mar 30 17:54:33 2012 :$GPGGA,204639.00,3957.10959,N,07511.39438,W,1,08,1.88,12.6,M,-33.9,M,,*57
Fri Mar 30 17:54:33 2012 :$GPGSA,A,3,31,14,32,46,30,29,16,51,,,,,4.37,1.88,3.94*02
Fri Mar 30 17:54:33 2012 :$GPGSV,2,1,08,31,63,033,46,14,35,119,44,32,50,260,48,46,41,215,41*75
Fri Mar 30 17:54:33 2012 :$GPGSV,2,2,08,30,64,201,48,29,21,075,25,16,35,203,46,51,33,224,44*70
Fri Mar 30 17:54:33 2012 :{"class":"SKY","tag":"GSV","device":"/dev/ttyO1","xdop":0.91,"ydop":1.21,"vdop":2.44,"tdop":1.80,"hdop":1.52,"gdop":3.40,"pdop":2.88,"satellites":[{"PRN":31,"el":63,"az":33,"ss":46,"used":true},{"PRN":14,"el":35,"az":119,"ss":44,"used":true},{"PRN":32,"el":50,"az":260,"ss":48,"used":true},{"PRN":46,"el":41,"az":215,"ss":41,"used":true},{"PRN":30,"el":64,"az":201,"ss":48,"used":true},{"PRN":29,"el":21,"az":75,"ss":25,"used":true},{"PRN":16,"el":35,"az":203,"ss":46,"used":true},{"PRN":51,"el":33,"az":224,"ss":44,"used":true}]}
Fri Mar 30 17:54:33 2012 :$GPGLL,3957.10959,N,07511.39438,W,204639.00,A,A*7A
Fri Mar 30 17:54:33 2012 :{"class":"TPV","tag":"GLL","device":"/dev/ttyO1","time":1333917999.000,"ept":0.005,"lat":39.951826500,"lon":-75.189906333,"alt":12.600,"epx":13.715,"epy":18.204,"epv":56.211,"track":255.1300,"speed":0.032,"climb":0.000,"eps":36.41,"mode":3}
Fri Mar 30 17:54:33 2012 :$GPZDA,204639.00,08,04,2012,00,00*61
Fri Mar 30 17:54:34 2012 :$GPRMC,204640.00,A,3957.10956,N,07511.39438,W,0.042,256.24,080412,,,A*72
Fri Mar 30 17:54:34 2012 :$GPVTG,256.24,T,,M,0.042,N,0.078,K,A*33
Fri Mar 30 17:54:34 2012 :$GPGGA,204640.00,3957.10956,N,07511.39438,W,1,08,1.89,12.3,M,-33.9,M,,*52
Fri Mar 30 17:54:34 2012 :$GPGSA,A,3,31,14,32,46,30,29,16,51,,,,,4.37,1.89,3.94*03
Fri Mar 30 17:54:34 2012 :$GPGSV,2,1,08,31,63,033,46,14,35,119,44,32,50,260,48,46,41,215,41*75
Fri Mar 30 17:54:34 2012 :$GPGSV,2,2,08,30,64,201,48,29,21,075,28,16,35,203,46,51,33,224,44*7D
Fri Mar 30 17:54:34 2012 :{"class":"SKY","tag":"GSV","device":"/dev/ttyO1","xdop":0.91,"ydop":1.21,"vdop":2.44,"tdop":1.80,"hdop":1.52,"gdop":3.40,"pdop":2.88,"satellites":[{"PRN":31,"el":63,"az":33,"ss":46,"used":true},{"PRN":14,"el":35,"az":119,"ss":44,"used":true},{"PRN":32,"el":50,"az":260,"ss":48,"used":true},{"PRN":46,"el":41,"az":215,"ss":41,"used":true},{"PRN":30,"el":64,"az":201,"ss":48,"used":true},{"PRN":29,"el":21,"az":75,"ss":28,"used":true},{"PRN":16,"el":35,"az":203,"ss":46,"used":true},{"PRN":51,"el":33,"az":224,"ss":44,"used":true}]}
Fri Mar 30 17:54:34 2012 :$GPGLL,3957.10956,N,07511.39438,W,204640.00,A,A*7B
Fri Mar 30 17:54:34 2012 :{"class":"TPV","tag":"GLL","device":"/dev/ttyO1","time":1333918000.000,"ept":0.005,"lat":39.951826000,"lon":-75.189906333,"alt":12.300,"epx":13.715,"epy":18.204,"epv":56.211,"track":256.2400,"speed":0.022,"climb":0.000,"eps":36.41,"mode":3}
Fri Mar 30 17:54:34 2012 :$GPZDA,204640.00,08,04,2012,00,00*6F
Fri Mar 30 17:54:35 2012 :$GPRMC,204641.00,A,3957.10955,N,07511.39437,W,0.029,257.12,080412,,,A*76
Fri Mar 30 17:54:35 2012 :$GPVTG,257.12,T,,M,0.029,N,0.053,K,A*33
Fri Mar 30 17:54:35 2012 :$GPGGA,204641.00,3957.10955,N,07511.39437,W,1,08,1.89,12.2,M,-33.9,M,,*5E
Fri Mar 30 17:54:35 2012 :$GPGSA,A,3,31,14,32,46,30,29,16,51,,,,,4.37,1.89,3.94*03
Fri Mar 30 17:54:35 2012 :$GPGSV,2,1,08,31,63,033,46,14,35,119,44,32,50,260,48,46,41,215,41*75
Fri Mar 30 17:54:35 2012 :$GPGSV,2,2,08,30,64,201,48,29,21,075,28,16,35,203,45,51,33,224,44*7E
Fri Mar 30 17:54:35 2012 :{"class":"SKY","tag":"GSV","device":"/dev/ttyO1","xdop":0.91,"ydop":1.21,"vdop":2.44,"tdop":1.80,"hdop":1.52,"gdop":3.40,"pdop":2.88,"satellites":[{"PRN":31,"el":63,"az":33,"ss":46,"used":true},{"PRN":14,"el":35,"az":119,"ss":44,"used":true},{"PRN":32,"el":50,"az":260,"ss":48,"used":true},{"PRN":46,"el":41,"az":215,"ss":41,"used":true},{"PRN":30,"el":64,"az":201,"ss":48,"used":true},{"PRN":29,"el":21,"az":75,"ss":28,"used":true},{"PRN":16,"el":35,"az":203,"ss":45,"used":true},{"PRN":51,"el":33,"az":224,"ss":44,"used":true}]}
Fri Mar 30 17:54:35 2012 :$GPGLL,3957.10955,N,07511.39437,W,204641.00,A,A*76
Fri Mar 30 17:54:35 2012 :{"class":"TPV","tag":"GLL","device":"/dev/ttyO1","time":1333918001.000,"ept":0.005,"lat":39.951825833,"lon":-75.189906167,"alt":12.200,"epx":13.715,"epy":18.204,"epv":56.211,"track":257.1200,"speed":0.015,"climb":0.000,"eps":36.41,"mode":3}
Fri Mar 30 17:54:35 2012 :$GPZDA,204641.00,08,04,2012,00,00*6E
Fri Mar 30 17:54:36 2012 :$GPRMC,204642.00,A,3957.10958,N,07511.39437,W,0.036,258.48,080412,,,A*76
Fri Mar 30 17:54:36 2012 :$GPVTG,258.48,T,,M,0.036,N,0.067,K,A*3A
Fri Mar 30 17:54:36 2012 :$GPGGA,204642.00,3957.10958,N,07511.39437,W,1,08,1.88,12.0,M,-33.9,M,,*53
Fri Mar 30 17:54:36 2012 :$GPGSA,A,3,31,14,32,46,30,29,16,51,,,,,4.37,1.88,3.94*02
Fri Mar 30 17:54:36 2012 :$GPGSV,2,1,08,31,63,033,46,14,35,119,44,32,50,260,48,46,41,215,41*75
Fri Mar 30 17:54:36 2012 :$GPGSV,2,2,08,30,64,201,48,29,21,075,28,16,35,203,46,51,33,224,44*7D
Fri Mar 30 17:54:36 2012 :{"class":"SKY","tag":"GSV","device":"/dev/ttyO1","xdop":0.91,"ydop":1.21,"vdop":2.44,"tdop":1.80,"hdop":1.52,"gdop":3.40,"pdop":2.88,"satellites":[{"PRN":31,"el":63,"az":33,"ss":46,"used":true},{"PRN":14,"el":35,"az":119,"ss":44,"used":true},{"PRN":32,"el":50,"az":260,"ss":48,"used":true},{"PRN":46,"el":41,"az":215,"ss":41,"used":true},{"PRN":30,"el":64,"az":201,"ss":48,"used":true},{"PRN":29,"el":21,"az":75,"ss":28,"used":true},{"PRN":16,"el":35,"az":203,"ss":46,"used":true},{"PRN":51,"el":33,"az":224,"ss":44,"used":true}]}
Fri Mar 30 17:54:36 2012 :$GPGLL,3957.10958,N,07511.39437,W,204642.00,A,A*78
Fri Mar 30 17:54:36 2012 :{"class":"TPV","tag":"GLL","device":"/dev/ttyO1","time":1333918002.000,"ept":0.005,"lat":39.951826333,"lon":-75.189906167,"alt":12.000,"epx":13.715,"epy":18.204,"epv":56.211,"track":258.4800,"speed":0.019,"climb":0.000,"eps":36.41,"mode":3}
Fri Mar 30 17:54:36 2012 :$GPZDA,204642.00,08,04,2012,00,00*6D
Fri Mar 30 17:54:37 2012 :$GPRMC,204643.00,A,3957.10959,N,07511.39438,W,0.058,259.34,080412,,,A*7B
Fri Mar 30 17:54:37 2012 :$GPVTG,259.34,T,,M,0.058,N,0.107,K,A*3F
Fri Mar 30 17:54:37 2012 :$GPGGA,204643.00,3957.10959,N,07511.39438,W,1,08,1.88,11.7,M,-33.9,M,,*58
Fri Mar 30 17:54:37 2012 :$GPGSA,A,3,31,14,32,46,30,29,16,51,,,,,4.37,1.88,3.94*02
Fri Mar 30 17:54:37 2012 :$GPGSV,2,1,08,31,63,033,46,14,35,119,44,32,50,260,48,46,41,215,41*75
Fri Mar 30 17:54:37 2012 :$GPGSV,2,2,08,30,64,201,48,29,21,075,28,16,35,203,46,51,33,224,44*7D
Fri Mar 30 17:54:37 2012 :{"class":"SKY","tag":"GSV","device":"/dev/ttyO1","xdop":0.91,"ydop":1.21,"vdop":2.44,"tdop":1.80,"hdop":1.52,"gdop":3.40,"pdop":2.88,"satellites":[{"PRN":31,"el":63,"az":33,"ss":46,"used":true},{"PRN":14,"el":35,"az":119,"ss":44,"used":true},{"PRN":32,"el":50,"az":260,"ss":48,"used":true},{"PRN":46,"el":41,"az":215,"ss":41,"used":true},{"PRN":30,"el":64,"az":201,"ss":48,"used":true},{"PRN":29,"el":21,"az":75,"ss":28,"used":true},{"PRN":16,"el":35,"az":203,"ss":46,"used":true},{"PRN":51,"el":33,"az":224,"ss":44,"used":true}]}
Fri Mar 30 17:54:37 2012 :$GPGLL,3957.10959,N,07511.39438,W,204643.00,A,A*77
Fri Mar 30 17:54:37 2012 :{"class":"TPV","tag":"GLL","device":"/dev/ttyO1","time":1333918003.000,"ept":0.005,"lat":39.951826500,"lon":-75.189906333,"alt":11.700,"epx":13.715,"epy":18.204,"epv":56.211,"track":259.3400,"speed":0.030,"climb":0.000,"eps":36.41,"mode":3}
Fri Mar 30 17:54:37 2012 :$GPZDA,204643.00,08,04,2012,00,00*6C
Fri Mar 30 17:54:38 2012 :$GPRMC,204644.00,A,3957.10959,N,07511.39441,W,0.067,260.03,080412,,,A*70
Fri Mar 30 17:54:38 2012 :$GPVTG,260.03,T,,M,0.067,N,0.125,K,A*3D
Fri Mar 30 17:54:38 2012 :$GPGGA,204644.00,3957.10959,N,07511.39441,W,1,08,1.89,11.5,M,-33.9,M,,*52
Fri Mar 30 17:54:38 2012 :$GPGSA,A,3,31,14,32,46,30,29,16,51,,,,,4.37,1.89,3.94*03
Fri Mar 30 17:54:38 2012 :$GPGSV,2,1,08,31,63,033,46,14,35,119,43,32,50,260,48,46,41,215,40*73
Fri Mar 30 17:54:38 2012 :$GPGSV,2,2,08,30,64,201,48,29,21,075,28,16,35,203,46,51,33,224,44*7D
Fri Mar 30 17:54:38 2012 :{"class":"SKY","tag":"GSV","device":"/dev/ttyO1","xdop":0.91,"ydop":1.21,"vdop":2.44,"tdop":1.80,"hdop":1.52,"gdop":3.40,"pdop":2.88,"satellites":[{"PRN":31,"el":63,"az":33,"ss":46,"used":true},{"PRN":14,"el":35,"az":119,"ss":43,"used":true},{"PRN":32,"el":50,"az":260,"ss":48,"used":true},{"PRN":46,"el":41,"az":215,"ss":40,"used":true},{"PRN":30,"el":64,"az":201,"ss":48,"used":true},{"PRN":29,"el":21,"az":75,"ss":28,"used":true},{"PRN":16,"el":35,"az":203,"ss":46,"used":true},{"PRN":51,"el":33,"az":224,"ss":44,"used":true}]}
Fri Mar 30 17:54:38 2012 :$GPGLL,3957.10959,N,07511.39441,W,204644.00,A,A*7E
Fri Mar 30 17:54:38 2012 :{"class":"TPV","tag":"GLL","device":"/dev/ttyO1","time":1333918004.000,"ept":0.005,"lat":39.951826500,"lon":-75.189906833,"alt":11.500,"epx":13.715,"epy":18.204,"epv":56.211,"track":260.0300,"speed":0.034,"climb":0.000,"eps":36.41,"mode":3}
Fri Mar 30 17:54:38 2012 :$GPZDA,204644.00,08,04,2012,00,00*6B
Fri Mar 30 17:54:39 2012 :$GPRMC,204645.00,A,3957.10962,N,07511.39444,W,0.055,260.95,080412,,,A*72
Fri Mar 30 17:54:39 2012 :$GPVTG,260.95,T,,M,0.055,N,0.101,K,A*35
Fri Mar 30 17:54:39 2012 :$GPGGA,204645.00,3957.10962,N,07511.39444,W,1,08,1.88,11.3,M,-33.9,M,,*59
Fri Mar 30 17:54:39 2012 :$GPGSA,A,3,31,14,32,46,30,29,16,51,,,,,4.37,1.88,3.94*02
Fri Mar 30 17:54:39 2012 :$GPGSV,2,1,08,31,63,033,46,14,35,119,44,32,50,260,48,46,41,215,40*74
Fri Mar 30 17:54:39 2012 :$GPGSV,2,2,08,30,64,201,48,29,21,075,28,16,35,203,47,51,33,224,44*7C
Fri Mar 30 17:54:39 2012 :{"class":"SKY","tag":"GSV","device":"/dev/ttyO1","xdop":0.91,"ydop":1.21,"vdop":2.44,"tdop":1.80,"hdop":1.52,"gdop":3.40,"pdop":2.88,"satellites":[{"PRN":31,"el":63,"az":33,"ss":46,"used":true},{"PRN":14,"el":35,"az":119,"ss":44,"used":true},{"PRN":32,"el":50,"az":260,"ss":48,"used":true},{"PRN":46,"el":41,"az":215,"ss":40,"used":true},{"PRN":30,"el":64,"az":201,"ss":48,"used":true},{"PRN":29,"el":21,"az":75,"ss":28,"used":true},{"PRN":16,"el":35,"az":203,"ss":47,"used":true},{"PRN":51,"el":33,"az":224,"ss":44,"used":true}]}
Fri Mar 30 17:54:39 2012 :$GPGLL,3957.10962,N,07511.39444,W,204645.00,A,A*72
Fri Mar 30 17:54:39 2012 :{"class":"TPV","tag":"GLL","device":"/dev/ttyO1","time":1333918005.000,"ept":0.005,"lat":39.951827000,"lon":-75.189907333,"alt":11.300,"epx":13.715,"epy":18.204,"epv":56.211,"track":260.9500,"speed":0.028,"climb":0.000,"eps":36.41,"mode":3}
Fri Mar 30 17:54:39 2012 :$GPZDA,204645.00,08,04,2012,00,00*6A
Fri Mar 30 17:54:40 2012 :$GPRMC,204646.00,A,3957.10964,N,07511.39447,W,0.054,261.96,080412,,,A*77
Fri Mar 30 17:54:40 2012 :$GPVTG,261.96,T,,M,0.054,N,0.101,K,A*36
Fri Mar 30 17:54:40 2012 :$GPGGA,204646.00,3957.10964,N,07511.39447,W,1,08,1.89,11.1,M,-33.9,M,,*5C
Fri Mar 30 17:54:40 2012 :$GPGSA,A,3,31,14,32,46,30,29,16,51,,,,,4.37,1.89,3.94*03
Fri Mar 30 17:54:40 2012 :$GPGSV,2,1,08,31,63,033,46,14,35,119,43,32,50,260,48,46,41,215,41*72
Fri Mar 30 17:54:40 2012 :$GPGSV,2,2,08,30,64,201,48,29,21,075,25,16,35,203,45,51,33,224,44*73
Fri Mar 30 17:54:40 2012 :{"class":"SKY","tag":"GSV","device":"/dev/ttyO1","xdop":0.91,"ydop":1.21,"vdop":2.44,"tdop":1.80,"hdop":1.52,"gdop":3.40,"pdop":2.88,"satellites":[{"PRN":31,"el":63,"az":33,"ss":46,"used":true},{"PRN":14,"el":35,"az":119,"ss":43,"used":true},{"PRN":32,"el":50,"az":260,"ss":48,"used":true},{"PRN":46,"el":41,"az":215,"ss":41,"used":true},{"PRN":30,"el":64,"az":201,"ss":48,"used":true},{"PRN":29,"el":21,"az":75,"ss":25,"used":true},{"PRN":16,"el":35,"az":203,"ss":45,"used":true},{"PRN":51,"el":33,"az":224,"ss":44,"used":true}]}
Fri Mar 30 17:54:40 2012 :$GPGLL,3957.10964,N,07511.39447,W,204646.00,A,A*74
Fri Mar 30 17:54:40 2012 :{"class":"TPV","tag":"GLL","device":"/dev/ttyO1","time":1333918006.000,"ept":0.005,"lat":39.951827333,"lon":-75.189907833,"alt":11.100,"epx":13.715,"epy":18.204,"epv":56.211,"track":261.9600,"speed":0.028,"climb":0.000,"eps":36.41,"mode":3}
Fri Mar 30 17:54:40 2012 :$GPZDA,204646.00,08,04,2012,00,00*69
Fri Mar 30 17:54:41 2012 :$GPRMC,204647.00,A,3957.10967,N,07511.39449,W,0.035,262.23,080412,,,A*71
Fri Mar 30 17:54:41 2012 :$GPVTG,262.23,T,,M,0.035,N,0.066,K,A*3C
Fri Mar 30 17:54:41 2012 :$GPGGA,204647.00,3957.10967,N,07511.39449,W,1,08,1.89,11.0,M,-33.9,M,,*51
Fri Mar 30 17:54:41 2012 :$GPGSA,A,3,31,14,32,46,30,29,16,51,,,,,4.37,1.89,3.94*03
Fri Mar 30 17:54:41 2012 :$GPGSV,2,1,08,31,63,033,46,14,35,119,43,32,50,260,47,46,41,215,41*7D
Fri Mar 30 17:54:41 2012 :$GPGSV,2,2,08,30,64,201,47,29,21,075,27,16,35,203,46,51,33,224,43*7A
Fri Mar 30 17:54:41 2012 :{"class":"SKY","tag":"GSV","device":"/dev/ttyO1","xdop":0.91,"ydop":1.21,"vdop":2.44,"tdop":1.80,"hdop":1.52,"gdop":3.40,"pdop":2.88,"satellites":[{"PRN":31,"el":63,"az":33,"ss":46,"used":true},{"PRN":14,"el":35,"az":119,"ss":43,"used":true},{"PRN":32,"el":50,"az":260,"ss":47,"used":true},{"PRN":46,"el":41,"az":215,"ss":41,"used":true},{"PRN":30,"el":64,"az":201,"ss":47,"used":true},{"PRN":29,"el":21,"az":75,"ss":27,"used":true},{"PRN":16,"el":35,"az":203,"ss":46,"used":true},{"PRN":51,"el":33,"az":224,"ss":43,"used":true}]}
Fri Mar 30 17:54:41 2012 :$GPGLL,3957.10967,N,07511.39449,W,204647.00,A,A*78
Fri Mar 30 17:54:41 2012 :{"class":"TPV","tag":"GLL","device":"/dev/ttyO1","time":1333918007.000,"ept":0.005,"lat":39.951827833,"lon":-75.189908167,"alt":11.000,"epx":13.715,"epy":18.204,"epv":56.211,"track":262.2300,"speed":0.018,"climb":0.000,"eps":36.41,"mode":3}
Fri Mar 30 17:54:41 2012 :$GPZDA,204647.00,08,04,2012,00,00*68
Fri Mar 30 17:54:42 2012 :$GPRMC,204648.00,A,3957.10971,N,07511.39454,W,0.043,261.72,080412,,,A*73
Fri Mar 30 17:54:42 2012 :$GPVTG,261.72,T,,M,0.043,N,0.079,K,A*34
Fri Mar 30 17:54:42 2012 :$GPGGA,204648.00,3957.10971,N,07511.39454,W,1,08,1.89,10.8,M,-33.9,M,,*5C
Fri Mar 30 17:54:42 2012 :$GPGSA,A,3,31,14,32,46,30,29,16,51,,,,,4.37,1.89,3.94*03
Fri Mar 30 17:54:42 2012 :$GPGSV,2,1,08,31,63,033,46,14,35,119,43,32,50,260,47,46,41,215,41*7D
Fri Mar 30 17:54:42 2012 :$GPGSV,2,2,08,30,64,201,47,29,21,075,23,16,35,203,45,51,33,224,44*7A
Fri Mar 30 17:54:42 2012 :{"class":"SKY","tag":"GSV","device":"/dev/ttyO1","xdop":0.91,"ydop":1.21,"vdop":2.44,"tdop":1.80,"hdop":1.52,"gdop":3.40,"pdop":2.88,"satellites":[{"PRN":31,"el":63,"az":33,"ss":46,"used":true},{"PRN":14,"el":35,"az":119,"ss":43,"used":true},{"PRN":32,"el":50,"az":260,"ss":47,"used":true},{"PRN":46,"el":41,"az":215,"ss":41,"used":true},{"PRN":30,"el":64,"az":201,"ss":47,"used":true},{"PRN":29,"el":21,"az":75,"ss":23,"used":true},{"PRN":16,"el":35,"az":203,"ss":45,"used":true},{"PRN":51,"el":33,"az":224,"ss":44,"used":true}]}
Fri Mar 30 17:54:42 2012 :$GPGLL,3957.10971,N,07511.39454,W,204648.00,A,A*7C
Fri Mar 30 17:54:42 2012 :{"class":"TPV","tag":"GLL","device":"/dev/ttyO1","time":1333918008.000,"ept":0.005,"lat":39.951828500,"lon":-75.189909000,"alt":10.800,"epx":13.715,"epy":18.204,"epv":56.211,"track":261.7200,"speed":0.022,"climb":0.000,"eps":36.41,"mode":3}
Fri Mar 30 17:54:42 2012 :$GPZDA,204648.00,08,04,2012,00,00*67
Fri Mar 30 17:54:43 2012 :$GPRMC,204649.00,A,3957.10976,N,07511.39459,W,0.054,261.93,080412,,,A*71
Fri Mar 30 17:54:43 2012 :$GPVTG,261.93,T,,M,0.054,N,0.099,K,A*33
Fri Mar 30 17:54:43 2012 :$GPGGA,204649.00,3957.10976,N,07511.39459,W,1,08,1.88,10.6,M,-33.9,M,,*58
Fri Mar 30 17:54:43 2012 :$GPGSA,A,3,31,14,32,46,30,29,16,51,,,,,4.37,1.88,3.94*02
Fri Mar 30 17:54:43 2012 :$GPGSV,2,1,08,31,63,033,46,14,35,119,43,32,50,260,47,46,41,215,41*7D
Fri Mar 30 17:54:43 2012 :$GPGSV,2,2,08,30,64,201,47,29,21,075,25,16,35,203,46,51,33,224,44*7F
Fri Mar 30 17:54:43 2012 :{"class":"SKY","tag":"GSV","device":"/dev/ttyO1","xdop":0.91,"ydop":1.21,"vdop":2.44,"tdop":1.80,"hdop":1.52,"gdop":3.40,"pdop":2.88,"satellites":[{"PRN":31,"el":63,"az":33,"ss":46,"used":true},{"PRN":14,"el":35,"az":119,"ss":43,"used":true},{"PRN":32,"el":50,"az":260,"ss":47,"used":true},{"PRN":46,"el":41,"az":215,"ss":41,"used":true},{"PRN":30,"el":64,"az":201,"ss":47,"used":true},{"PRN":29,"el":21,"az":75,"ss":25,"used":true},{"PRN":16,"el":35,"az":203,"ss":46,"used":true},{"PRN":51,"el":33,"az":224,"ss":44,"used":true}]}
Fri Mar 30 17:54:43 2012 :$GPGLL,3957.10976,N,07511.39459,W,204649.00,A,A*77
Fri Mar 30 17:54:43 2012 :{"class":"TPV","tag":"GLL","device":"/dev/ttyO1","time":1333918009.000,"ept":0.005,"lat":39.951829333,"lon":-75.189909833,"alt":10.600,"epx":13.715,"epy":18.204,"epv":56.211,"track":261.9300,"speed":0.028,"climb":0.000,"eps":36.41,"mode":3}
Fri Mar 30 17:54:43 2012 :$GPZDA,204649.00,08,04,2012,00,00*66
Fri Mar 30 17:54:44 2012 :$GPRMC,204650.00,A,3957.10980,N,07511.39464,W,0.061,262.11,080412,,,A*71
Fri Mar 30 17:54:44 2012 :$GPVTG,262.11,T,,M,0.061,N,0.114,K,A*38
Fri Mar 30 17:54:44 2012 :$GPGGA,204650.00,3957.10980,N,07511.39464,W,1,08,1.88,10.4,M,-33.9,M,,*55
Fri Mar 30 17:54:44 2012 :$GPGSA,A,3,31,14,32,46,30,29,16,51,,,,,4.36,1.88,3.94*03
Fri Mar 30 17:54:44 2012 :$GPGSV,2,1,08,31,63,033,46,14,35,119,44,32,50,260,47,46,41,215,41*7A
Fri Mar 30 17:54:44 2012 :$GPGSV,2,2,08,30,64,201,47,29,21,075,28,16,35,203,46,51,33,224,44*72
Fri Mar 30 17:54:44 2012 :{"class":"SKY","tag":"GSV","device":"/dev/ttyO1","xdop":0.91,"ydop":1.21,"vdop":2.44,"tdop":1.80,"hdop":1.52,"gdop":3.40,"pdop":2.88,"satellites":[{"PRN":31,"el":63,"az":33,"ss":46,"used":true},{"PRN":14,"el":35,"az":119,"ss":44,"used":true},{"PRN":32,"el":50,"az":260,"ss":47,"used":true},{"PRN":46,"el":41,"az":215,"ss":41,"used":true},{"PRN":30,"el":64,"az":201,"ss":47,"used":true},{"PRN":29,"el":21,"az":75,"ss":28,"used":true},{"PRN":16,"el":35,"az":203,"ss":46,"used":true},{"PRN":51,"el":33,"az":224,"ss":44,"used":true}]}
Fri Mar 30 17:54:44 2012 :$GPGLL,3957.10980,N,07511.39464,W,204650.00,A,A*78
Fri Mar 30 17:54:44 2012 :{"class":"TPV","tag":"GLL","device":"/dev/ttyO1","time":1333918010.000,"ept":0.005,"lat":39.951830000,"lon":-75.189910667,"alt":10.400,"epx":13.715,"epy":18.204,"epv":56.211,"track":262.1100,"speed":0.031,"climb":0.000,"eps":36.41,"mode":3}
Fri Mar 30 17:54:44 2012 :$GPZDA,204650.00,08,04,2012,00,00*6E
Fri Mar 30 17:54:45 2012 :$GPRMC,204651.00,A,3957.10985,N,07511.39471,W,0.047,262.66,080412,,,A*75
Fri Mar 30 17:54:45 2012 :$GPVTG,262.66,T,,M,0.047,N,0.087,K,A*37
Fri Mar 30 17:54:45 2012 :$GPGGA,204651.00,3957.10985,N,07511.39471,W,1,08,1.88,10.2,M,-33.9,M,,*53
Fri Mar 30 17:54:45 2012 :$GPGSA,A,3,31,14,32,46,30,29,16,51,,,,,4.36,1.88,3.94*03
Fri Mar 30 17:54:45 2012 :$GPGSV,2,1,08,31,63,033,46,14,35,119,43,32,50,260,47,46,41,215,40*7C
Fri Mar 30 17:54:45 2012 :$GPGSV,2,2,08,30,64,201,48,29,21,075,31,16,35,203,46,51,33,224,43*72
Fri Mar 30 17:54:45 2012 :{"class":"SKY","tag":"GSV","device":"/dev/ttyO1","xdop":0.91,"ydop":1.21,"vdop":2.44,"tdop":1.80,"hdop":1.52,"gdop":3.40,"pdop":2.88,"satellites":[{"PRN":31,"el":63,"az":33,"ss":46,"used":true},{"PRN":14,"el":35,"az":119,"ss":43,"used":true},{"PRN":32,"el":50,"az":260,"ss":47,"used":true},{"PRN":46,"el":41,"az":215,"ss":40,"used":true},{"PRN":30,"el":64,"az":201,"ss":48,"used":true},{"PRN":29,"el":21,"az":75,"ss":31,"used":true},{"PRN":16,"el":35,"az":203,"ss":46,"used":true},{"PRN":51,"el":33,"az":224,"ss":43,"used":true}]}
Fri Mar 30 17:54:45 2012 :$GPGLL,3957.10985,N,07511.39471,W,204651.00,A,A*78
Fri Mar 30 17:54:45 2012 :{"class":"TPV","tag":"GLL","device":"/dev/ttyO1","time":1333918011.000,"ept":0.005,"lat":39.951830833,"lon":-75.189911833,"alt":10.200,"epx":13.715,"epy":18.204,"epv":56.211,"track":262.6600,"speed":0.024,"climb":0.000,"eps":36.41,"mode":3}
Fri Mar 30 17:54:45 2012 :$GPZDA,204651.00,08,04,2012,00,00*6F
Fri Mar 30 17:54:46 2012 :$GPRMC,204652.00,A,3957.10990,N,07511.39476,W,0.026,262.81,080412,,,A*7B
Fri Mar 30 17:54:46 2012 :$GPVTG,262.81,T,,M,0.026,N,0.048,K,A*3A
Fri Mar 30 17:54:46 2012 :$GPGGA,204652.00,3957.10990,N,07511.39476,W,1,08,1.89,10.1,M,-33.9,M,,*51
Fri Mar 30 17:54:46 2012 :$GPGSA,A,3,31,14,32,46,30,29,16,51,,,,,4.36,1.89,3.94*02
Fri Mar 30 17:54:46 2012 :$GPGSV,2,1,08,31,63,033,46,14,35,119,43,32,50,260,47,46,41,215,41*7D
Fri Mar 30 17:54:46 2012 :$GPGSV,2,2,08,30,64,201,48,29,21,075,31,16,35,203,46,51,33,224,44*75
Fri Mar 30 17:54:46 2012 :{"class":"SKY","tag":"GSV","device":"/dev/ttyO1","xdop":0.91,"ydop":1.21,"vdop":2.44,"tdop":1.80,"hdop":1.52,"gdop":3.40,"pdop":2.88,"satellites":[{"PRN":31,"el":63,"az":33,"ss":46,"used":true},{"PRN":14,"el":35,"az":119,"ss":43,"used":true},{"PRN":32,"el":50,"az":260,"ss":47,"used":true},{"PRN":46,"el":41,"az":215,"ss":41,"used":true},{"PRN":30,"el":64,"az":201,"ss":48,"used":true},{"PRN":29,"el":21,"az":75,"ss":31,"used":true},{"PRN":16,"el":35,"az":203,"ss":46,"used":true},{"PRN":51,"el":33,"az":224,"ss":44,"used":true}]}
Fri Mar 30 17:54:46 2012 :$GPGLL,3957.10990,N,07511.39476,W,204652.00,A,A*78
Fri Mar 30 17:54:46 2012 :{"class":"TPV","tag":"GLL","device":"/dev/ttyO1","time":1333918012.000,"ept":0.005,"lat":39.951831667,"lon":-75.189912667,"alt":10.100,"epx":13.715,"epy":18.204,"epv":56.211,"track":262.8100,"speed":0.013,"climb":0.000,"eps":36.41,"mode":3}
Fri Mar 30 17:54:46 2012 :$GPZDA,204652.00,08,04,2012,00,00*6C
Fri Mar 30 17:54:47 2012 :$GPRMC,204653.00,A,3957.10995,N,07511.39483,W,0.024,262.21,080412,,,A*7D
Fri Mar 30 17:54:47 2012 :$GPVTG,262.21,T,,M,0.024,N,0.044,K,A*3E
Fri Mar 30 17:54:47 2012 :$GPGGA,204653.00,3957.10995,N,07511.39483,W,1,08,1.89,10.0,M,-33.9,M,,*5E
Fri Mar 30 17:54:47 2012 :$GPGSA,A,3,31,14,32,46,30,29,16,51,,,,,4.36,1.89,3.94*02
Fri Mar 30 17:54:47 2012 :$GPGSV,2,1,08,31,63,033,46,14,35,119,43,32,50,260,47,46,41,215,41*7D
Fri Mar 30 17:54:47 2012 :$GPGSV,2,2,08,30,64,201,48,29,21,075,34,16,35,203,46,51,33,224,44*70
Fri Mar 30 17:54:47 2012 :{"class":"SKY","tag":"GSV","device":"/dev/ttyO1","xdop":0.91,"ydop":1.21,"vdop":2.44,"tdop":1.80,"hdop":1.52,"gdop":3.40,"pdop":2.88,"satellites":[{"PRN":31,"el":63,"az":33,"ss":46,"used":true},{"PRN":14,"el":35,"az":119,"ss":43,"used":true},{"PRN":32,"el":50,"az":260,"ss":47,"used":true},{"PRN":46,"el":41,"az":215,"ss":41,"used":true},{"PRN":30,"el":64,"az":201,"ss":48,"used":true},{"PRN":29,"el":21,"az":75,"ss":34,"used":true},{"PRN":16,"el":35,"az":203,"ss":46,"used":true},{"PRN":51,"el":33,"az":224,"ss":44,"used":true}]}
Fri Mar 30 17:54:47 2012 :$GPGLL,3957.10995,N,07511.39483,W,204653.00,A,A*76
Fri Mar 30 17:54:47 2012 :{"class":"TPV","tag":"GLL","device":"/dev/ttyO1","time":1333918013.000,"ept":0.005,"lat":39.951832500,"lon":-75.189913833,"alt":10.000,"epx":13.715,"epy":18.204,"epv":56.211,"track":262.2100,"speed":0.012,"climb":0.000,"eps":36.41,"mode":3}
Fri Mar 30 17:54:47 2012 :$GPZDA,204653.00,08,04,2012,00,00*6D
Fri Mar 30 17:54:48 2012 :$GPRMC,204654.00,A,3957.10999,N,07511.39487,W,0.029,261.73,080412,,,A*7B
Fri Mar 30 17:54:48 2012 :$GPVTG,261.73,T,,M,0.029,N,0.053,K,A*31
Fri Mar 30 17:54:48 2012 :$GPGGA,204654.00,3957.10999,N,07511.39487,W,1,08,1.88,9.9,M,-33.9,M,,*61
Fri Mar 30 17:54:48 2012 :$GPGSA,A,3,31,14,32,46,30,29,16,51,,,,,4.36,1.88,3.94*03
Fri Mar 30 17:54:48 2012 :$GPGSV,2,1,08,31,63,033,46,14,35,119,44,32,50,260,47,46,41,215,41*7A
Fri Mar 30 17:54:48 2012 :$GPGSV,2,2,08,30,64,201,47,29,21,075,35,16,35,203,46,51,33,224,44*7E
Fri Mar 30 17:54:48 2012 :{"class":"SKY","tag":"GSV","device":"/dev/ttyO1","xdop":0.91,"ydop":1.21,"vdop":2.44,"tdop":1.80,"hdop":1.52,"gdop":3.40,"pdop":2.88,"satellites":[{"PRN":31,"el":63,"az":33,"ss":46,"used":true},{"PRN":14,"el":35,"az":119,"ss":44,"used":true},{"PRN":32,"el":50,"az":260,"ss":47,"used":true},{"PRN":46,"el":41,"az":215,"ss":41,"used":true},{"PRN":30,"el":64,"az":201,"ss":47,"used":true},{"PRN":29,"el":21,"az":75,"ss":35,"used":true},{"PRN":16,"el":35,"az":203,"ss":46,"used":true},{"PRN":51,"el":33,"az":224,"ss":44,"used":true}]}
Fri Mar 30 17:54:48 2012 :$GPGLL,3957.10999,N,07511.39487,W,204654.00,A,A*79
Fri Mar 30 17:54:48 2012 :{"class":"TPV","tag":"GLL","device":"/dev/ttyO1","time":1333918014.000,"ept":0.005,"lat":39.951833167,"lon":-75.189914500,"alt":9.900,"epx":13.715,"epy":18.204,"epv":56.211,"track":261.7300,"speed":0.015,"climb":0.000,"eps":36.41,"mode":3}
Fri Mar 30 17:54:48 2012 :$GPZDA,204654.00,08,04,2012,00,00*6A
Fri Mar 30 17:54:49 2012 :$GPRMC,204655.00,A,3957.11003,N,07511.39491,W,0.027,261.36,080412,,,A*79
Fri Mar 30 17:54:49 2012 :$GPVTG,261.36,T,,M,0.027,N,0.050,K,A*3D
Fri Mar 30 17:54:49 2012 :$GPGGA,204655.00,3957.11003,N,07511.39491,W,1,08,1.88,9.8,M,-33.9,M,,*6D
Fri Mar 30 17:54:49 2012 :$GPGSA,A,3,31,14,32,46,30,29,16,51,,,,,4.36,1.88,3.93*04
Fri Mar 30 17:54:49 2012 :$GPGSV,2,1,08,31,63,033,46,14,35,119,43,32,50,260,48,46,41,215,40*73
Fri Mar 30 17:54:49 2012 :$GPGSV,2,2,08,30,64,201,48,29,21,075,34,16,35,203,46,51,33,224,44*70
Fri Mar 30 17:54:49 2012 :{"class":"SKY","tag":"GSV","device":"/dev/ttyO1","xdop":0.91,"ydop":1.21,"vdop":2.44,"tdop":1.80,"hdop":1.52,"gdop":3.40,"pdop":2.88,"satellites":[{"PRN":31,"el":63,"az":33,"ss":46,"used":true},{"PRN":14,"el":35,"az":119,"ss":43,"used":true},{"PRN":32,"el":50,"az":260,"ss":48,"used":true},{"PRN":46,"el":41,"az":215,"ss":40,"used":true},{"PRN":30,"el":64,"az":201,"ss":48,"used":true},{"PRN":29,"el":21,"az":75,"ss":34,"used":true},{"PRN":16,"el":35,"az":203,"ss":46,"used":true},{"PRN":51,"el":33,"az":224,"ss":44,"used":true}]}
Fri Mar 30 17:54:49 2012 :$GPGLL,3957.11003,N,07511.39491,W,204655.00,A,A*74
Fri Mar 30 17:54:49 2012 :{"class":"TPV","tag":"GLL","device":"/dev/ttyO1","time":1333918015.000,"ept":0.005,"lat":39.951833833,"lon":-75.189915167,"alt":9.800,"epx":13.715,"epy":18.204,"epv":56.211,"track":261.3600,"speed":0.014,"climb":0.000,"eps":36.41,"mode":3}
Fri Mar 30 17:54:49 2012 :$GPZDA,204655.00,08,04,2012,00,00*6B
Fri Mar 30 17:54:50 2012 :$GPRMC,204656.00,A,3957.11007,N,07511.39491,W,0.029,259.46,080412,,,A*7C
Fri Mar 30 17:54:50 2012 :$GPVTG,259.46,T,,M,0.029,N,0.054,K,A*3B
Fri Mar 30 17:54:50 2012 :$GPGGA,204656.00,3957.11007,N,07511.39491,W,1,08,1.89,9.7,M,-33.9,M,,*64
Fri Mar 30 17:54:50 2012 :$GPGSA,A,3,31,14,32,46,30,29,16,51,,,,,4.36,1.89,3.93*05
Fri Mar 30 17:54:50 2012 :$GPGSV,2,1,08,31,63,033,46,14,35,119,43,32,50,260,47,46,41,215,41*7D
Fri Mar 30 17:54:50 2012 :$GPGSV,2,2,08,30,64,201,47,29,21,075,33,16,35,203,46,51,33,224,43*7F
Fri Mar 30 17:54:50 2012 :{"class":"SKY","tag":"GSV","device":"/dev/ttyO1","xdop":0.91,"ydop":1.21,"vdop":2.44,"tdop":1.80,"hdop":1.52,"gdop":3.40,"pdop":2.88,"satellites":[{"PRN":31,"el":63,"az":33,"ss":46,"used":true},{"PRN":14,"el":35,"az":119,"ss":43,"used":true},{"PRN":32,"el":50,"az":260,"ss":47,"used":true},{"PRN":46,"el":41,"az":215,"ss":41,"used":true},{"PRN":30,"el":64,"az":201,"ss":47,"used":true},{"PRN":29,"el":21,"az":75,"ss":33,"used":true},{"PRN":16,"el":35,"az":203,"ss":46,"used":true},{"PRN":51,"el":33,"az":224,"ss":43,"used":true}]}
Fri Mar 30 17:54:50 2012 :$GPGLL,3957.11007,N,07511.39491,W,204656.00,A,A*73
Fri Mar 30 17:54:50 2012 :{"class":"TPV","tag":"GLL","device":"/dev/ttyO1","time":1333918016.000,"ept":0.005,"lat":39.951834500,"lon":-75.189915167,"alt":9.700,"epx":13.715,"epy":18.204,"epv":56.211,"track":259.4600,"speed":0.015,"climb":0.000,"eps":36.41,"mode":3}
Fri Mar 30 17:54:50 2012 :$GPZDA,204656.00,08,04,2012,00,00*68
Fri Mar 30 17:54:51 2012 :$GPRMC,204657.00,A,3957.11011,N,07511.39491,W,0.047,257.29,080412,,,A*75
Fri Mar 30 17:54:51 2012 :$GPVTG,257.29,T,,M,0.047,N,0.088,K,A*35
Fri Mar 30 17:54:51 2012 :$GPGGA,204657.00,3957.11011,N,07511.39491,W,1,08,1.89,9.5,M,-33.9,M,,*60
Fri Mar 30 17:54:51 2012 :$GPGSA,A,3,31,14,32,46,30,29,16,51,,,,,4.36,1.89,3.93*05
Fri Mar 30 17:54:51 2012 :$GPGSV,2,1,08,31,63,033,46,14,35,119,43,32,50,260,47,46,41,215,41*7D
Fri Mar 30 17:54:51 2012 :$GPGSV,2,2,08,30,64,201,48,29,21,075,34,16,35,203,46,51,33,224,43*77
Fri Mar 30 17:54:51 2012 :{"class":"SKY","tag":"GSV","device":"/dev/ttyO1","xdop":0.91,"ydop":1.21,"vdop":2.44,"tdop":1.80,"hdop":1.52,"gdop":3.40,"pdop":2.88,"satellites":[{"PRN":31,"el":63,"az":33,"ss":46,"used":true},{"PRN":14,"el":35,"az":119,"ss":43,"used":true},{"PRN":32,"el":50,"az":260,"ss":47,"used":true},{"PRN":46,"el":41,"az":215,"ss":41,"used":true},{"PRN":30,"el":64,"az":201,"ss":48,"used":true},{"PRN":29,"el":21,"az":75,"ss":34,"used":true},{"PRN":16,"el":35,"az":203,"ss":46,"used":true},{"PRN":51,"el":33,"az":224,"ss":43,"used":true}]}
Fri Mar 30 17:54:51 2012 :$GPGLL,3957.11011,N,07511.39491,W,204657.00,A,A*75
Fri Mar 30 17:54:51 2012 :{"class":"TPV","tag":"GLL","device":"/dev/ttyO1","time":1333918017.000,"ept":0.005,"lat":39.951835167,"lon":-75.189915167,"alt":9.500,"epx":13.715,"epy":18.204,"epv":56.211,"track":257.2900,"speed":0.024,"climb":0.000,"eps":36.41,"mode":3}
Fri Mar 30 17:54:51 2012 :$GPZDA,204657.00,08,04,2012,00,00*69
Fri Mar 30 17:54:52 2012 :$GPRMC,204658.00,A,3957.11013,N,07511.39491,W,0.051,255.29,080412,,,A*7D
Fri Mar 30 17:54:52 2012 :$GPVTG,255.29,T,,M,0.051,N,0.095,K,A*3C
Fri Mar 30 17:54:52 2012 :$GPGGA,204658.00,3957.11013,N,07511.39491,W,1,08,1.88,9.4,M,-33.9,M,,*6D
Fri Mar 30 17:54:52 2012 :$GPGSA,A,3,31,14,32,46,30,29,16,51,,,,,4.36,1.88,3.93*04
Fri Mar 30 17:54:52 2012 :$GPGSV,2,1,08,31,63,033,45,14,35,119,43,32,50,260,47,46,41,215,40*7F
Fri Mar 30 17:54:52 2012 :$GPGSV,2,2,08,30,64,201,47,29,21,075,34,16,35,203,46,51,33,224,43*78
Fri Mar 30 17:54:52 2012 :{"class":"SKY","tag":"GSV","device":"/dev/ttyO1","xdop":0.91,"ydop":1.21,"vdop":2.44,"tdop":1.80,"hdop":1.52,"gdop":3.40,"pdop":2.88,"satellites":[{"PRN":31,"el":63,"az":33,"ss":45,"used":true},{"PRN":14,"el":35,"az":119,"ss":43,"used":true},{"PRN":32,"el":50,"az":260,"ss":47,"used":true},{"PRN":46,"el":41,"az":215,"ss":40,"used":true},{"PRN":30,"el":64,"az":201,"ss":47,"used":true},{"PRN":29,"el":21,"az":75,"ss":34,"used":true},{"PRN":16,"el":35,"az":203,"ss":46,"used":true},{"PRN":51,"el":33,"az":224,"ss":43,"used":true}]}
Fri Mar 30 17:54:52 2012 :$GPGLL,3957.11013,N,07511.39491,W,204658.00,A,A*78
Fri Mar 30 17:54:52 2012 :{"class":"TPV","tag":"GLL","device":"/dev/ttyO1","time":1333918018.000,"ept":0.005,"lat":39.951835500,"lon":-75.189915167,"alt":9.400,"epx":13.715,"epy":18.204,"epv":56.211,"track":255.2900,"speed":0.026,"climb":0.000,"eps":36.41,"mode":3}
Fri Mar 30 17:54:52 2012 :$GPZDA,204658.00,08,04,2012,00,00*66
Fri Mar 30 17:54:53 2012 :$GPRMC,204659.00,A,3957.11013,N,07511.39492,W,0.044,254.18,080412,,,A*78
Fri Mar 30 17:54:53 2012 :$GPVTG,254.18,T,,M,0.044,N,0.081,K,A*3E
Fri Mar 30 17:54:53 2012 :$GPGGA,204659.00,3957.11013,N,07511.39492,W,1,08,1.88,9.2,M,-33.9,M,,*69
Fri Mar 30 17:54:53 2012 :$GPGSA,A,3,31,14,32,46,30,29,16,51,,,,,4.36,1.88,3.93*04
Fri Mar 30 17:54:53 2012 :$GPGSV,2,1,08,31,63,033,46,14,35,119,43,32,50,260,47,46,41,215,40*7C
Fri Mar 30 17:54:53 2012 :$GPGSV,2,2,08,30,64,201,47,29,21,075,34,16,35,203,46,51,33,224,43*78
Fri Mar 30 17:54:53 2012 :{"class":"SKY","tag":"GSV","device":"/dev/ttyO1","xdop":0.91,"ydop":1.21,"vdop":2.44,"tdop":1.80,"hdop":1.52,"gdop":3.40,"pdop":2.88,"satellites":[{"PRN":31,"el":63,"az":33,"ss":46,"used":true},{"PRN":14,"el":35,"az":119,"ss":43,"used":true},{"PRN":32,"el":50,"az":260,"ss":47,"used":true},{"PRN":46,"el":41,"az":215,"ss":40,"used":true},{"PRN":30,"el":64,"az":201,"ss":47,"used":true},{"PRN":29,"el":21,"az":75,"ss":34,"used":true},{"PRN":16,"el":35,"az":203,"ss":46,"used":true},{"PRN":51,"el":33,"az":224,"ss":43,"used":true}]}
Fri Mar 30 17:54:53 2012 :$GPGLL,3957.11013,N,07511.39492,W,204659.00,A,A*7A
Fri Mar 30 17:54:53 2012 :{"class":"TPV","tag":"GLL","device":"/dev/ttyO1","time":1333918019.000,"ept":0.005,"lat":39.951835500,"lon":-75.189915333,"alt":9.200,"epx":13.715,"epy":18.204,"epv":56.211,"track":254.1800,"speed":0.023,"climb":0.000,"eps":36.41,"mode":3}
Fri Mar 30 17:54:53 2012 :$GPZDA,204659.00,08,04,2012,00,00*67
Fri Mar 30 17:54:54 2012 :$GPRMC,204700.00,A,3957.11014,N,07511.39492,W,0.039,253.92,080412,,,A*7D
Fri Mar 30 17:54:54 2012 :$GPVTG,253.92,T,,M,0.039,N,0.073,K,A*3C
Fri Mar 30 17:54:54 2012 :$GPGGA,204700.00,3957.11014,N,07511.39492,W,1,08,1.88,9.1,M,-33.9,M,,*60
Fri Mar 30 17:54:54 2012 :$GPGSA,A,3,31,14,32,46,30,29,16,51,,,,,4.36,1.88,3.93*04
Fri Mar 30 17:54:54 2012 :$GPGSV,2,1,08,31,63,033,46,14,35,119,43,32,50,260,47,46,41,215,41*7D
Fri Mar 30 17:54:54 2012 :$GPGSV,2,2,08,30,64,201,47,29,21,075,34,16,35,203,46,51,33,224,44*7F
Fri Mar 30 17:54:54 2012 :{"class":"SKY","tag":"GSV","device":"/dev/ttyO1","xdop":0.91,"ydop":1.21,"vdop":2.44,"tdop":1.80,"hdop":1.52,"gdop":3.40,"pdop":2.88,"satellites":[{"PRN":31,"el":63,"az":33,"ss":46,"used":true},{"PRN":14,"el":35,"az":119,"ss":43,"used":true},{"PRN":32,"el":50,"az":260,"ss":47,"used":true},{"PRN":46,"el":41,"az":215,"ss":41,"used":true},{"PRN":30,"el":64,"az":201,"ss":47,"used":true},{"PRN":29,"el":21,"az":75,"ss":34,"used":true},{"PRN":16,"el":35,"az":203,"ss":46,"used":true},{"PRN":51,"el":33,"az":224,"ss":44,"used":true}]}
Fri Mar 30 17:54:54 2012 :$GPGLL,3957.11014,N,07511.39492,W,204700.00,A,A*70
Fri Mar 30 17:54:54 2012 :{"class":"TPV","tag":"GLL","device":"/dev/ttyO1","time":1333918020.000,"ept":0.005,"lat":39.951835667,"lon":-75.189915333,"alt":9.100,"epx":13.715,"epy":18.204,"epv":56.211,"track":253.9200,"speed":0.020,"climb":0.000,"eps":36.41,"mode":3}
Fri Mar 30 17:54:54 2012 :$GPZDA,204700.00,08,04,2012,00,00*6A
Fri Mar 30 17:54:55 2012 :$GPRMC,204701.00,A,3957.11017,N,07511.39492,W,0.045,254.02,080412,,,A*7A
Fri Mar 30 17:54:55 2012 :$GPVTG,254.02,T,,M,0.045,N,0.084,K,A*31
Fri Mar 30 17:54:55 2012 :$GPGGA,204701.00,3957.11017,N,07511.39492,W,1,08,1.89,8.9,M,-33.9,M,,*6A
Fri Mar 30 17:54:55 2012 :$GPGSA,A,3,31,14,32,46,30,29,16,51,,,,,4.36,1.89,3.93*05
Fri Mar 30 17:54:55 2012 :$GPGSV,2,1,08,31,63,033,46,14,35,119,43,32,50,260,47,46,41,215,40*7C
Fri Mar 30 17:54:55 2012 :$GPGSV,2,2,08,30,64,201,47,29,21,075,34,16,35,203,46,51,33,224,44*7F
Fri Mar 30 17:54:55 2012 :{"class":"SKY","tag":"GSV","device":"/dev/ttyO1","xdop":0.91,"ydop":1.21,"vdop":2.44,"tdop":1.80,"hdop":1.52,"gdop":3.40,"pdop":2.88,"satellites":[{"PRN":31,"el":63,"az":33,"ss":46,"used":true},{"PRN":14,"el":35,"az":119,"ss":43,"used":true},{"PRN":32,"el":50,"az":260,"ss":47,"used":true},{"PRN":46,"el":41,"az":215,"ss":40,"used":true},{"PRN":30,"el":64,"az":201,"ss":47,"used":true},{"PRN":29,"el":21,"az":75,"ss":34,"used":true},{"PRN":16,"el":35,"az":203,"ss":46,"used":true},{"PRN":51,"el":33,"az":224,"ss":44,"used":true}]}
Fri Mar 30 17:54:55 2012 :$GPGLL,3957.11017,N,07511.39492,W,204701.00,A,A*72
Fri Mar 30 17:54:55 2012 :{"class":"TPV","tag":"GLL","device":"/dev/ttyO1","time":1333918021.000,"ept":0.005,"lat":39.951836167,"lon":-75.189915333,"alt":8.900,"epx":13.715,"epy":18.204,"epv":56.211,"track":254.0200,"speed":0.023,"climb":0.000,"eps":36.41,"mode":3}
Fri Mar 30 17:54:55 2012 :$GPZDA,204701.00,08,04,2012,00,00*6B
Fri Mar 30 17:54:56 2012 :$GPRMC,204702.00,A,3957.11018,N,07511.39493,W,0.064,254.56,080412,,,A*75
Fri Mar 30 17:54:56 2012 :$GPVTG,254.56,T,,M,0.064,N,0.119,K,A*36
Fri Mar 30 17:54:56 2012 :$GPGGA,204702.00,3957.11018,N,07511.39493,W,1,08,1.88,8.7,M,-33.9,M,,*68
Fri Mar 30 17:54:56 2012 :$GPGSA,A,3,31,14,32,46,30,29,16,51,,,,,4.36,1.88,3.93*04
Fri Mar 30 17:54:56 2012 :$GPGSV,2,1,08,31,63,033,46,14,35,119,43,32,50,260,47,46,41,215,40*7C
Fri Mar 30 17:54:56 2012 :$GPGSV,2,2,08,30,64,201,47,29,21,075,34,16,35,203,46,51,33,224,43*78
Fri Mar 30 17:54:56 2012 :{"class":"SKY","tag":"GSV","device":"/dev/ttyO1","xdop":0.91,"ydop":1.21,"vdop":2.44,"tdop":1.80,"hdop":1.52,"gdop":3.40,"pdop":2.88,"satellites":[{"PRN":31,"el":63,"az":33,"ss":46,"used":true},{"PRN":14,"el":35,"az":119,"ss":43,"used":true},{"PRN":32,"el":50,"az":260,"ss":47,"used":true},{"PRN":46,"el":41,"az":215,"ss":40,"used":true},{"PRN":30,"el":64,"az":201,"ss":47,"used":true},{"PRN":29,"el":21,"az":75,"ss":34,"used":true},{"PRN":16,"el":35,"az":203,"ss":46,"used":true},{"PRN":51,"el":33,"az":224,"ss":43,"used":true}]}
Fri Mar 30 17:54:56 2012 :$GPGLL,3957.11018,N,07511.39493,W,204702.00,A,A*7F
Fri Mar 30 17:54:56 2012 :{"class":"TPV","tag":"GLL","device":"/dev/ttyO1","time":1333918022.000,"ept":0.005,"lat":39.951836333,"lon":-75.189915500,"alt":8.700,"epx":13.715,"epy":18.204,"epv":56.211,"track":254.5600,"speed":0.033,"climb":0.000,"eps":36.41,"mode":3}
Fri Mar 30 17:54:56 2012 :$GPZDA,204702.00,08,04,2012,00,00*68
Fri Mar 30 17:54:57 2012 :$GPRMC,204703.00,A,3957.11019,N,07511.39494,W,0.061,255.76,080412,,,A*74
Fri Mar 30 17:54:57 2012 :$GPVTG,255.76,T,,M,0.061,N,0.113,K,A*3A
Fri Mar 30 17:54:57 2012 :$GPGGA,204703.00,3957.11019,N,07511.39494,W,1,08,1.88,8.5,M,-33.9,M,,*6D
Fri Mar 30 17:54:57 2012 :$GPGSA,A,3,31,14,32,46,30,29,16,51,,,,,4.36,1.88,3.93*04
Fri Mar 30 17:54:57 2012 :$GPGSV,2,1,08,31,63,033,46,14,35,119,44,32,50,260,47,46,41,215,41*7A
Fri Mar 30 17:54:57 2012 :$GPGSV,2,2,08,30,64,201,47,29,21,075,33,16,35,203,46,51,33,224,43*7F
Fri Mar 30 17:54:57 2012 :{"class":"SKY","tag":"GSV","device":"/dev/ttyO1","xdop":0.91,"ydop":1.21,"vdop":2.44,"tdop":1.80,"hdop":1.52,"gdop":3.40,"pdop":2.88,"satellites":[{"PRN":31,"el":63,"az":33,"ss":46,"used":true},{"PRN":14,"el":35,"az":119,"ss":44,"used":true},{"PRN":32,"el":50,"az":260,"ss":47,"used":true},{"PRN":46,"el":41,"az":215,"ss":41,"used":true},{"PRN":30,"el":64,"az":201,"ss":47,"used":true},{"PRN":29,"el":21,"az":75,"ss":33,"used":true},{"PRN":16,"el":35,"az":203,"ss":46,"used":true},{"PRN":51,"el":33,"az":224,"ss":43,"used":true}]}
Fri Mar 30 17:54:57 2012 :$GPGLL,3957.11019,N,07511.39494,W,204703.00,A,A*78
Fri Mar 30 17:54:57 2012 :{"class":"TPV","tag":"GLL","device":"/dev/ttyO1","time":1333918023.000,"ept":0.005,"lat":39.951836500,"lon":-75.189915667,"alt":8.500,"epx":13.715,"epy":18.204,"epv":56.211,"track":255.7600,"speed":0.031,"climb":0.000,"eps":36.41,"mode":3}
Fri Mar 30 17:54:57 2012 :$GPZDA,204703.00,08,04,2012,00,00*69
Fri Mar 30 17:54:58 2012 :$GPRMC,204704.00,A,3957.11023,N,07511.39496,W,0.037,256.94,080412,,,A*74
Fri Mar 30 17:54:58 2012 :$GPVTG,256.94,T,,M,0.037,N,0.069,K,A*3A
Fri Mar 30 17:54:58 2012 :$GPGGA,204704.00,3957.11023,N,07511.39496,W,1,08,1.88,8.3,M,-33.9,M,,*67
Fri Mar 30 17:54:58 2012 :$GPGSA,A,3,31,14,32,46,30,29,16,51,,,,,4.36,1.88,3.93*04
Fri Mar 30 17:54:58 2012 :$GPGSV,2,1,08,31,63,033,46,14,34,119,44,32,50,260,47,46,41,215,41*7B
Fri Mar 30 17:54:58 2012 :$GPGSV,2,2,08,30,64,201,48,29,21,075,33,16,35,203,46,51,33,224,43*70
Fri Mar 30 17:54:58 2012 :{"class":"SKY","tag":"GSV","device":"/dev/ttyO1","xdop":0.92,"ydop":1.22,"vdop":2.46,"tdop":1.81,"hdop":1.52,"gdop":3.41,"pdop":2.89,"satellites":[{"PRN":31,"el":63,"az":33,"ss":46,"used":true},{"PRN":14,"el":34,"az":119,"ss":44,"used":true},{"PRN":32,"el":50,"az":260,"ss":47,"used":true},{"PRN":46,"el":41,"az":215,"ss":41,"used":true},{"PRN":30,"el":64,"az":201,"ss":48,"used":true},{"PRN":29,"el":21,"az":75,"ss":33,"used":true},{"PRN":16,"el":35,"az":203,"ss":46,"used":true},{"PRN":51,"el":33,"az":224,"ss":43,"used":true}]}
Fri Mar 30 17:54:58 2012 :$GPGLL,3957.11023,N,07511.39496,W,204704.00,A,A*74
Fri Mar 30 17:54:58 2012 :{"class":"TPV","tag":"GLL","device":"/dev/ttyO1","time":1333918024.000,"ept":0.005,"lat":39.951837167,"lon":-75.189916000,"alt":8.300,"epx":13.715,"epy":18.204,"epv":56.211,"track":256.9400,"speed":0.019,"climb":0.000,"eps":36.41,"mode":3}
Fri Mar 30 17:54:58 2012 :$GPZDA,204704.00,08,04,2012,00,00*6E
Fri Mar 30 17:54:59 2012 :$GPRMC,204705.00,A,3957.11028,N,07511.39497,W,0.029,257.34,080412,,,A*7B
Fri Mar 30 17:54:59 2012 :$GPVTG,257.34,T,,M,0.029,N,0.053,K,A*37
Fri Mar 30 17:54:59 2012 :$GPGGA,204705.00,3957.11028,N,07511.39497,W,1,08,1.88,8.1,M,-33.9,M,,*6E
Fri Mar 30 17:54:59 2012 :$GPGSA,A,3,31,14,32,46,30,29,16,51,,,,,4.36,1.88,3.93*04
Fri Mar 30 17:54:59 2012 :$GPGSV,2,1,08,31,63,033,46,14,34,119,44,32,50,260,48,46,41,215,41*74
Fri Mar 30 17:54:59 2012 :$GPGSV,2,2,08,30,64,201,48,29,21,075,33,16,35,203,46,51,33,224,44*77
