{"class":"VERSION","release":"2.95","rev":"2011-07-27T11:57:19","proto_major":3,"proto_minor":3}
{"class":"DEVICES","devices":[{"class":"DEVICE","path":"/dev/ttyO1"}]}
{"class":"WATCH","enable":true,"json":true,"nmea":true,"raw":0,"scaled":false,"timing":false}
$GPRMC,164912.00,A,3957.16126,N,07511.28946,W,0.248,219.87,170412,,,A*76
$GPVTG,219.87,T,,M,0.248,N,0.459,K,A*3E
$GPGGA,164912.00,3957.16126,N,07511.28946,W,1,03,2.38,533.4,M,-33.9,M,,*61
$GPGSA,A,2,18,14,12,,,,,,,,,,2.58,2.38,1.00*0B
$GPGSV,2,1,06,22,,,47,18,47,136,49,14,59,304,42,25,28,135,44*4E
$GPGSV,2,2,06,01,03,329,,12,31,085,46*7B
{"class":"SKY","tag":"GSV","device":"/dev/ttyO1","satellites":[{"PRN":22,"el":0,"az":0,"ss":47,"used":false},{"PRN":18,"el":47,"az":136,"ss":49,"used":true},{"PRN":14,"el":59,"az":304,"ss":42,"used":true},{"PRN":25,"el":28,"az":135,"ss":44,"used":false},{"PRN":1,"el":3,"az":329,"ss":0,"used":false},{"PRN":12,"el":31,"az":85,"ss":46,"used":true}]}
$GPGLL,3957.16126,N,07511.28946,W,164912.00,A,A*7B
{"class":"TPV","tag":"GLL","device":"/dev/ttyO1","time":1334681352.000,"ept":0.005,"lat":39.952687667,"lon":-75.188157667,"alt":533.400,"epv":23.000,"track":219.8700,"speed":0.128,"climb":0.000,"mode":3}
$GPZDA,164912.00,17,04,2012,00,00*6C
$GPRMC,164913.00,A,3957.16120,N,07511.28957,W,0.247,217.71,170412,,,A*79
$GPVTG,217.71,T,,M,0.247,N,0.458,K,A*37
$GPGGA,164913.00,3957.16120,N,07511.28957,W,1,03,2.38,533.4,M,-33.9,M,,*66
$GPGSA,A,2,18,14,12,,,,,,,,,,2.58,2.38,1.00*0B
$GPGSV,2,1,06,22,,,47,18,47,136,49,14,59,304,42,25,28,135,43*49
$GPGSV,2,2,06,01,03,329,,12,31,085,46*7B
{"class":"SKY","tag":"GSV","device":"/dev/ttyO1","satellites":[{"PRN":22,"el":0,"az":0,"ss":47,"used":false},{"PRN":18,"el":47,"az":136,"ss":49,"used":true},{"PRN":14,"el":59,"az":304,"ss":42,"used":true},{"PRN":25,"el":28,"az":135,"ss":43,"used":false},{"PRN":1,"el":3,"az":329,"ss":0,"used":false},{"PRN":12,"el":31,"az":85,"ss":46,"used":true}]}
$GPGLL,3957.16120,N,07511.28957,W,164913.00,A,A*7C
{"class":"TPV","tag":"GLL","device":"/dev/ttyO1","time":1334681353.000,"ept":0.005,"lat":39.952686667,"lon":-75.188159500,"alt":533.400,"epv":23.000,"track":217.7100,"speed":0.127,"climb":0.000,"mode":3}
$GPZDA,164913.00,17,04,2012,00,00*6D
$GPRMC,164914.00,A,3957.16115,N,07511.28973,W,0.258,215.75,170412,,,A*76
$GPVTG,215.75,T,,M,0.258,N,0.479,K,A*3C
$GPGGA,164914.00,3957.16115,N,07511.28973,W,1,03,2.38,533.4,M,-33.9,M,,*61
$GPGSA,A,2,18,14,12,,,,,,,,,,2.58,2.38,1.00*0B
$GPGSV,2,1,06,22,,,47,18,47,136,48,14,59,304,42,25,28,135,44*4F
$GPGSV,2,2,06,01,03,329,,12,31,085,46*7B
{"class":"SKY","tag":"GSV","device":"/dev/ttyO1","satellites":[{"PRN":22,"el":0,"az":0,"ss":47,"used":false},{"PRN":18,"el":47,"az":136,"ss":48,"used":true},{"PRN":14,"el":59,"az":304,"ss":42,"used":true},{"PRN":25,"el":28,"az":135,"ss":44,"used":false},{"PRN":1,"el":3,"az":329,"ss":0,"used":false},{"PRN":12,"el":31,"az":85,"ss":46,"used":true}]}
$GPGLL,3957.16115,N,07511.28973,W,164914.00,A,A*7B
{"class":"TPV","tag":"GLL","device":"/dev/ttyO1","time":1334681354.000,"ept":0.005,"lat":39.952685833,"lon":-75.188162167,"alt":533.400,"epv":23.000,"track":215.7500,"speed":0.133,"climb":0.000,"mode":3}
$GPZDA,164914.00,17,04,2012,00,00*6A
$GPRMC,164915.00,A,3957.16108,N,07511.28993,W,0.262,214.02,170412,,,A*7D
$GPVTG,214.02,T,,M,0.262,N,0.486,K,A*34
$GPGGA,164915.00,3957.16108,N,07511.28993,W,1,03,2.38,533.4,M,-33.9,M,,*62
$GPGSA,A,2,18,14,12,,,,,,,,,,2.58,2.38,1.00*0B
$GPGSV,2,1,06,22,,,46,18,47,136,49,14,59,304,42,25,28,135,45*4E
$GPGSV,2,2,06,01,03,329,,12,31,085,46*7B
{"class":"SKY","tag":"GSV","device":"/dev/ttyO1","satellites":[{"PRN":22,"el":0,"az":0,"ss":46,"used":false},{"PRN":18,"el":47,"az":136,"ss":49,"used":true},{"PRN":14,"el":59,"az":304,"ss":42,"used":true},{"PRN":25,"el":28,"az":135,"ss":45,"used":false},{"PRN":1,"el":3,"az":329,"ss":0,"used":false},{"PRN":12,"el":31,"az":85,"ss":46,"used":true}]}
$GPGLL,3957.16108,N,07511.28993,W,164915.00,A,A*78
{"class":"TPV","tag":"GLL","device":"/dev/ttyO1","time":1334681355.000,"ept":0.005,"lat":39.952684667,"lon":-75.188165500,"alt":533.400,"epv":23.000,"track":214.0200,"speed":0.135,"climb":0.000,"mode":3}
$GPZDA,164915.00,17,04,2012,00,00*6B
$GPRMC,164916.00,A,3957.16102,N,07511.29015,W,0.246,212.25,170412,,,A*77
$GPVTG,212.25,T,,M,0.246,N,0.456,K,A*3C
$GPGGA,164916.00,3957.16102,N,07511.29015,W,1,03,2.38,533.4,M,-33.9,M,,*6D
$GPGSA,A,2,18,14,12,,,,,,,,,,2.58,2.38,1.00*0B
$GPGSV,2,1,06,22,,,46,18,47,136,49,14,59,304,42,25,28,135,44*4F
$GPGSV,2,2,06,01,03,329,,12,31,085,46*7B
{"class":"SKY","tag":"GSV","device":"/dev/ttyO1","satellites":[{"PRN":22,"el":0,"az":0,"ss":46,"used":false},{"PRN":18,"el":47,"az":136,"ss":49,"used":true},{"PRN":14,"el":59,"az":304,"ss":42,"used":true},{"PRN":25,"el":28,"az":135,"ss":44,"used":false},{"PRN":1,"el":3,"az":329,"ss":0,"used":false},{"PRN":12,"el":31,"az":85,"ss":46,"used":true}]}
$GPGLL,3957.16102,N,07511.29015,W,164916.00,A,A*77
{"class":"TPV","tag":"GLL","device":"/dev/ttyO1","time":1334681356.000,"ept":0.005,"lat":39.952683667,"lon":-75.188169167,"alt":533.400,"epv":23.000,"track":212.2500,"speed":0.127,"climb":0.000,"mode":3}
$GPZDA,164916.00,17,04,2012,00,00*68
$GPRMC,164917.00,A,3957.16093,N,07511.29030,W,0.262,210.56,170412,,,A*78
$GPVTG,210.56,T,,M,0.262,N,0.485,K,A*32
$GPGGA,164917.00,3957.16093,N,07511.29030,W,1,03,2.38,533.5,M,-33.9,M,,*63
$GPGSA,A,2,18,14,12,,,,,,,,,,2.58,2.38,1.00*0B
$GPGSV,2,1,06,22,,,47,18,47,136,49,14,59,304,42,25,28,135,44*4E
$GPGSV,2,2,06,01,03,329,,12,31,085,46*7B
{"class":"SKY","tag":"GSV","device":"/dev/ttyO1","satellites":[{"PRN":22,"el":0,"az":0,"ss":47,"used":false},{"PRN":18,"el":47,"az":136,"ss":49,"used":true},{"PRN":14,"el":59,"az":304,"ss":42,"used":true},{"PRN":25,"el":28,"az":135,"ss":44,"used":false},{"PRN":1,"el":3,"az":329,"ss":0,"used":false},{"PRN":12,"el":31,"az":85,"ss":46,"used":true}]}
$GPGLL,3957.16093,N,07511.29030,W,164917.00,A,A*78
{"class":"TPV","tag":"GLL","device":"/dev/ttyO1","time":1334681357.000,"ept":0.005,"lat":39.952682167,"lon":-75.188171667,"alt":533.500,"epv":23.000,"track":210.5600,"speed":0.135,"climb":0.000,"mode":3}
$GPZDA,164917.00,17,04,2012,00,00*69
$GPRMC,164918.00,A,3957.16084,N,07511.29046,W,0.259,208.98,170412,,,A*73
$GPVTG,208.98,T,,M,0.259,N,0.479,K,A*32
$GPGGA,164918.00,3957.16084,N,07511.29046,W,1,03,2.38,533.5,M,-33.9,M,,*6B
$GPGSA,A,2,18,14,12,,,,,,,,,,2.58,2.38,1.00*0B
$GPGSV,2,1,06,22,,,45,18,47,136,48,14,59,304,40,25,28,135,43*48
$GPGSV,2,2,06,01,03,329,,12,31,085,45*78
{"class":"SKY","tag":"GSV","device":"/dev/ttyO1","satellites":[{"PRN":22,"el":0,"az":0,"ss":45,"used":false},{"PRN":18,"el":47,"az":136,"ss":48,"used":true},{"PRN":14,"el":59,"az":304,"ss":40,"used":true},{"PRN":25,"el":28,"az":135,"ss":43,"used":false},{"PRN":1,"el":3,"az":329,"ss":0,"used":false},{"PRN":12,"el":31,"az":85,"ss":45,"used":true}]}
$GPGLL,3957.16084,N,07511.29046,W,164918.00,A,A*70
{"class":"TPV","tag":"GLL","device":"/dev/ttyO1","time":1334681358.000,"ept":0.005,"lat":39.952680667,"lon":-75.188174333,"alt":533.500,"epv":23.000,"track":208.9800,"speed":0.133,"climb":0.000,"mode":3}
$GPZDA,164918.00,17,04,2012,00,00*66
$GPRMC,164919.00,A,3957.11247,N,07511.35580,W,0.278,207.53,170412,,,A*71
$GPVTG,207.53,T,,M,0.278,N,0.516,K,A*31
$GPGGA,164919.00,3957.11247,N,07511.35580,W,1,05,2.63,224.4,M,-33.9,M,,*6A
$GPGSA,A,3,22,18,14,25,12,,,,,,,,6.96,2.63,6.44*02
$GPGSV,2,1,06,22,84,275,47,18,47,136,49,14,59,304,42,25,28,135,45*73
$GPGSV,2,2,06,01,03,329,,12,31,085,47*7A
{"class":"SKY","tag":"GSV","device":"/dev/ttyO1","xdop":9.11,"ydop":8.55,"vdop":4.21,"tdop":2.80,"hdop":12.50,"gdop":13.48,"pdop":13.19,"satellites":[{"PRN":22,"el":84,"az":275,"ss":47,"used":true},{"PRN":18,"el":47,"az":136,"ss":49,"used":true},{"PRN":14,"el":59,"az":304,"ss":42,"used":true},{"PRN":25,"el":28,"az":135,"ss":45,"used":true},{"PRN":1,"el":3,"az":329,"ss":0,"used":false},{"PRN":12,"el":31,"az":85,"ss":47,"used":true}]}
$GPGLL,3957.11247,N,07511.35580,W,164919.00,A,A*79
{"class":"TPV","tag":"GLL","device":"/dev/ttyO1","time":1334681359.000,"ept":0.005,"lat":39.951874500,"lon":-75.189263333,"alt":224.400,"epx":136.705,"epy":128.257,"epv":148.120,"track":207.5300,"speed":0.143,"climb":0.000,"mode":3}
$GPZDA,164919.00,17,04,2012,00,00*67
$GPRMC,164920.00,A,3957.11275,N,07511.37696,W,0.117,204.29,170412,,,A*78
$GPVTG,204.29,T,,M,0.117,N,0.217,K,A*33
$GPGGA,164920.00,3957.11275,N,07511.37696,W,1,05,2.42,104.1,M,-33.9,M,,*60
$GPGSA,A,3,22,18,14,25,12,,,,,,,,4.87,2.42,4.23*00
$GPGSV,2,1,06,22,84,275,47,18,47,136,49,14,59,304,41,25,28,135,45*70
$GPGSV,2,2,06,01,03,329,,12,31,085,47*7A
{"class":"SKY","tag":"GSV","device":"/dev/ttyO1","xdop":9.11,"ydop":8.55,"vdop":4.21,"tdop":2.80,"hdop":12.50,"gdop":13.48,"pdop":13.19,"satellites":[{"PRN":22,"el":84,"az":275,"ss":47,"used":true},{"PRN":18,"el":47,"az":136,"ss":49,"used":true},{"PRN":14,"el":59,"az":304,"ss":41,"used":true},{"PRN":25,"el":28,"az":135,"ss":45,"used":true},{"PRN":1,"el":3,"az":329,"ss":0,"used":false},{"PRN":12,"el":31,"az":85,"ss":47,"used":true}]}
$GPGLL,3957.11275,N,07511.37696,W,164920.00,A,A*74
{"class":"TPV","tag":"GLL","device":"/dev/ttyO1","time":1334681360.000,"ept":0.005,"lat":39.951879167,"lon":-75.189616000,"alt":104.100,"epx":136.705,"epy":128.257,"epv":96.747,"track":204.2900,"speed":0.060,"climb":0.000,"eps":273.41,"mode":3}
$GPZDA,164920.00,17,04,2012,00,00*6D
$GPRMC,164921.00,A,3957.11262,N,07511.38140,W,0.016,,170412,,,A*6F
$GPVTG,,T,,M,0.016,N,0.030,K,A*27
$GPGGA,164921.00,3957.11262,N,07511.38140,W,1,05,2.42,86.6,M,-33.9,M,,*58
$GPGSA,A,3,22,18,14,25,12,,,,,,,,4.87,2.42,4.22*01
$GPGSV,2,1,06,22,84,275,47,18,47,136,50,14,59,304,42,25,28,135,45*7B
$GPGSV,2,2,06,01,03,329,,12,31,085,47*7A
{"class":"SKY","tag":"GSV","device":"/dev/ttyO1","xdop":9.11,"ydop":8.55,"vdop":4.21,"tdop":2.80,"hdop":12.50,"gdop":13.48,"pdop":13.19,"satellites":[{"PRN":22,"el":84,"az":275,"ss":47,"used":true},{"PRN":18,"el":47,"az":136,"ss":50,"used":true},{"PRN":14,"el":59,"az":304,"ss":42,"used":true},{"PRN":25,"el":28,"az":135,"ss":45,"used":true},{"PRN":1,"el":3,"az":329,"ss":0,"used":false},{"PRN":12,"el":31,"az":85,"ss":47,"used":true}]}
