$GPRMC,121948.00,A,3957.16425,N,07511.42568,W,0.058,179.47,270412,,,A*7B
$GPRMC,121949.00,A,3957.16423,N,07511.42568,W,0.299,184.49,270412,,,A*7F
$GPRMC,121950.00,A,3957.16411,N,07511.42588,W,0.617,189.32,270412,,,A*7B
$GPRMC,121951.00,A,3957.16407,N,07511.42610,W,0.560,193.49,270412,,,A*7B
$GPRMC,121952.00,A,3957.16406,N,07511.42624,W,0.431,197.36,270412,,,A*77
$GPRMC,121953.00,A,3957.16401,N,07511.42635,W,0.160,199.56,270412,,,A*78
$GPRMC,121955.00,A,3957.16394,N,07511.42642,W,0.009,,270412,,,A*67
$GPRMC,121954.00,A,3957.16397,N,07511.42640,W,0.008,,270412,,,A*66
$GPRMC,121957.00,A,3957.16385,N,07511.42658,W,0.695,204.02,270412,,,A*77
$GPRMC,121958.00,A,3957.16376,N,07511.42680,W,0.726,206.27,270412,,,A*7D
$GPRMC,121959.00,A,3957.16368,N,07511.42702,W,0.822,208.05,270412,,,A*7D
$GPRMC,122000.00,A,3957.16355,N,07511.42726,W,1.063,209.90,270412,,,A*72
$GPRMC,122002.00,A,3957.16282,N,07511.42905,W,4.435,244.84,270412,,,A*7A
$GPRMC,122005.00,A,3957.16209,N,07511.43706,W,10.773,274.84,270412,,,A*45
$GPRMC,122004.00,A,3957.16198,N,07511.43356,W,8.404,264.98,270412,,,A*78
$GPRMC,122006.00,A,3957.16251,N,07511.44135,W,12.884,278.93,270412,,,A*45
$GPRMC,122008.00,A,3957.16371,N,07511.45130,W,14.091,278.99,270412,,,A*4C
$GPRMC,122010.00,A,3957.16468,N,07511.46065,W,12.368,278.23,270412,,,A*4A
$GPRMC,122011.00,A,3957.16493,N,07511.46416,W,9.736,274.46,270412,,,A*75
$GPRMC,122009.00,A,3957.16426,N,07511.45611,W,12.693,278.73,270412,,,A*4A
$GPRMC,122012.00,A,3957.16530,N,07511.46686,W,7.127,273.66,270412,,,A*78
$GPRMC,122013.00,A,3957.16561,N,07511.46871,W,4.472,274.69,270412,,,A*75
$GPRMC,122016.00,A,3957.16618,N,07511.47014,W,0.066,279.97,270412,,,A*7E
$GPRMC,122015.00,A,3957.16615,N,07511.47005,W,0.673,279.21,270412,,,A*7F
$GPRMC,122019.00,A,3957.16639,N,07511.46998,W,0.006,,270412,,,A*64
$GPRMC,122018.00,A,3957.16633,N,07511.47004,W,0.016,,270412,,,A*63
$GPRMC,122017.00,A,3957.16626,N,07511.47010,W,0.009,,270412,,,A*63
$GPRMC,122021.00,A,3957.16656,N,07511.46986,W,0.010,,270412,,,A*6E
$GPRMC,122020.00,A,3957.16645,N,07511.46992,W,0.021,275.73,270412,,,A*70
$GPRMC,122022.00,A,3957.16666,N,07511.46982,W,0.167,277.56,270412,,,A*74
$GPRMC,122024.00,A,3957.16686,N,07511.46970,W,0.026,274.26,270412,,,A*71
$GPRMC,122027.00,A,3957.16716,N,07511.46953,W,0.010,,270412,,,A*65
$GPRMC,122025.00,A,3957.16697,N,07511.46965,W,0.014,,270412,,,A*6E
$GPRMC,122026.00,A,3957.16706,N,07511.46959,W,0.020,270.09,270412,,,A*7E
$GPRMC,122028.00,A,3957.16727,N,07511.46948,W,0.017,,270412,,,A*65
$GPRMC,122031.00,A,3957.16754,N,07511.46935,W,0.001,,270412,,,A*64
$GPRMC,122030.00,A,3957.16744,N,07511.46939,W,0.011,,270412,,,A*69
$GPRMC,122032.00,A,3957.16769,N,07511.46934,W,0.005,,270412,,,A*6C
$GPRMC,122033.00,A,3957.16776,N,07511.46932,W,0.014,,270412,,,A*65
$GPRMC,122036.00,A,3957.16810,N,07511.47035,W,1.965,286.94,270412,,,A*71
$GPRMC,122035.00,A,3957.16799,N,07511.46978,W,1.029,271.48,270412,,,A*75
$GPRMC,122038.00,A,3957.16860,N,07511.47321,W,5.609,284.50,270412,,,A*75
$GPRMC,122039.00,A,3957.16918,N,07511.47569,W,8.278,287.58,270412,,,A*74
$GPRMC,122041.00,A,3957.17072,N,07511.48286,W,11.093,286.62,270412,,,A*41
$GPRMC,122040.00,A,3957.16990,N,07511.47903,W,10.753,288.21,270412,,,A*4E
$GPRMC,122043.00,A,3957.17195,N,07511.49035,W,9.891,282.81,270412,,,A*7A
$GPRMC,122045.00,A,3957.17288,N,07511.49740,W,9.775,281.39,270412,,,A*73
$GPRMC,122044.00,A,3957.17249,N,07511.49387,W,9.757,282.35,270412,,,A*7F
$GPRMC,122046.00,A,3957.17305,N,07511.50088,W,9.579,279.07,270412,,,A*7B
$GPRMC,122049.00,A,3957.17387,N,07511.51248,W,11.344,279.11,270412,,,A*47
$GPRMC,122052.00,A,3957.17467,N,07511.52431,W,10.129,278.81,270412,,,A*4F
$GPRMC,122050.00,A,3957.17415,N,07511.51659,W,11.106,278.78,270412,,,A*4D
$GPRMC,122055.00,A,3957.17560,N,07511.53671,W,11.312,278.71,270412,,,A*4D
$GPRMC,122054.00,A,3957.17530,N,07511.53246,W,11.809,278.70,270412,,,A*49
$GPRMC,122053.00,A,3957.17500,N,07511.52825,W,10.982,279.30,270412,,,A*45
$GPRMC,122056.00,A,3957.17602,N,07511.54071,W,10.968,278.54,270412,,,A*49
$GPRMC,122057.00,A,3957.17641,N,07511.54475,W,11.489,279.04,270412,,,A*48
$GPRMC,122059.00,A,3957.17739,N,07511.55392,W,13.774,280.47,270412,,,A*45
$GPRMC,122102.00,A,3957.17897,N,07511.56842,W,13.623,279.45,270412,,,A*43
$GPRMC,122100.00,A,3957.17793,N,07511.55882,W,13.318,279.65,270412,,,A*4A
$GPRMC,122103.00,A,3957.17955,N,07511.57341,W,13.964,278.67,270412,,,A*49
$GPRMC,122105.00,A,3957.18067,N,07511.58330,W,14.034,279.63,270412,,,A*4F
$GPRMC,122104.00,A,3957.18005,N,07511.57840,W,13.516,276.29,270412,,,A*4A
$GPRMC,122106.00,A,3957.18132,N,07511.58826,W,13.877,279.26,270412,,,A*48
$GPRMC,122107.00,A,3957.18216,N,07511.59305,W,13.731,280.35,270412,,,A*4E
$GPRMC,122108.00,A,3957.18271,N,07511.59784,W,13.300,278.80,270412,,,A*42
$GPRMC,122110.00,A,3957.18281,N,07511.60930,W,16.696,271.57,270412,,,A*43
$GPRMC,122111.00,A,3957.18301,N,07511.61540,W,16.976,272.83,270412,,,A*4A
$GPRMC,122109.00,A,3957.18298,N,07511.60318,W,14.852,276.15,270412,,,A*46
$GPRMC,122112.00,A,3957.18339,N,07511.62184,W,18.528,275.33,270412,,,A*48
$GPRMC,122115.00,A,3957.18578,N,07511.64429,W,22.154,278.32,270412,,,A*42
$GPRMC,122114.00,A,3957.18482,N,07511.63636,W,21.846,277.42,270412,,,A*4D
$GPRMC,122113.00,A,3957.18385,N,07511.62861,W,18.763,275.26,270412,,,A*45
$GPRMC,122117.00,A,3957.18818,N,07511.65984,W,20.863,282.34,270412,,,A*4C
$GPRMC,122118.00,A,3957.18995,N,07511.66685,W,19.866,285.79,270412,,,A*4B
$GPRMC,122120.00,A,3957.19277,N,07511.68050,W,18.666,282.48,270412,,,A*4C
$GPRMC,122119.00,A,3957.19136,N,07511.67371,W,19.013,285.21,270412,,,A*42
$GPRMC,122121.00,A,3957.19389,N,07511.68735,W,19.171,281.96,270412,,,A*49
$GPRMC,122123.00,A,3957.19701,N,07511.69919,W,17.407,284.05,270412,,,A*4B
$GPRMC,122125.00,A,3957.19768,N,07511.71378,W,19.269,276.30,270412,,,A*4D
$GPRMC,122126.00,A,3957.19842,N,07511.72084,W,19.061,277.41,270412,,,A*47
$GPRMC,122128.00,A,3957.19990,N,07511.73419,W,18.127,278.70,270412,,,A*49
$GPRMC,122127.00,A,3957.19910,N,07511.72767,W,18.525,276.88,270412,,,A*4A
$GPRMC,122129.00,A,3957.20105,N,07511.74048,W,17.904,279.73,270412,,,A*45
$GPRMC,122130.00,A,3957.20252,N,07511.74659,W,17.754,280.20,270412,,,A*41
$GPRMC,122132.00,A,3957.20413,N,07511.75964,W,18.306,279.06,270412,,,A*4E
$GPRMC,122131.00,A,3957.20368,N,07511.75282,W,17.888,279.59,270412,,,A*4D
$GPRMC,122133.00,A,3957.20487,N,07511.76628,W,18.093,278.99,270412,,,A*4E
$GPRMC,122135.00,A,3957.20701,N,07511.77868,W,17.580,279.06,270412,,,A*41
$GPRMC,122134.00,A,3957.20597,N,07511.77245,W,18.124,278.06,270412,,,A*4C
$GPRMC,122136.00,A,3957.20785,N,07511.78476,W,17.134,278.77,270412,,,A*4E
$GPRMC,122138.00,A,3957.20941,N,07511.79716,W,17.398,279.23,270412,,,A*46
$GPRMC,122137.00,A,3957.20852,N,07511.79102,W,17.237,279.11,270412,,,A*4C
$GPRMC,122139.00,A,3957.20990,N,07511.80352,W,17.300,279.33,270412,,,A*49
$GPRMC,122140.00,A,3957.21052,N,07511.80988,W,17.846,279.28,270412,,,A*4F
$GPRMC,122141.00,A,3957.21106,N,07511.81638,W,17.852,277.63,270412,,,A*4F
$GPRMC,122142.00,A,3957.21137,N,07511.82310,W,16.969,278.38,270412,,,A*4B
$GPRMC,122144.00,A,3957.21257,N,07511.83472,W,15.320,278.16,270412,,,A*42
$GPRMC,122143.00,A,3957.21206,N,07511.82900,W,16.088,278.66,270412,,,A*4D
$GPRMC,122146.00,A,3957.21295,N,07511.84570,W,13.770,278.73,270412,,,A*4E
$GPRMC,122145.00,A,3957.21235,N,07511.84064,W,14.605,278.06,270412,,,A*41
$GPRMC,122147.00,A,3957.21373,N,07511.85071,W,13.148,277.63,270412,,,A*40
$GPRMC,122148.00,A,3957.21391,N,07511.85543,W,12.512,277.42,270412,,,A*4E
$GPRMC,122149.00,A,3957.21415,N,07511.85979,W,11.693,278.59,270412,,,A*4D
$GPRMC,122151.00,A,3957.21493,N,07511.86727,W,9.798,279.45,270412,,,A*73
$GPRMC,122150.00,A,3957.21465,N,07511.86383,W,10.652,279.82,270412,,,A*45
$GPRMC,122152.00,A,3957.21519,N,07511.87041,W,9.065,276.07,270412,,,A*79
$GPRMC,122154.00,A,3957.21633,N,07511.87625,W,9.393,281.12,270412,,,A*76
$GPRMC,122153.00,A,3957.21564,N,07511.87325,W,8.995,281.16,270412,,,A*7C
$GPRMC,122155.00,A,3957.21680,N,07511.87963,W,9.781,280.56,270412,,,A*74
$GPRMC,122156.00,A,3957.21717,N,07511.88313,W,9.522,284.15,270412,,,A*72
$GPRMC,122157.00,A,3957.21787,N,07511.88633,W,9.353,286.00,270412,,,A*7B
$GPRMC,122200.00,A,3957.21955,N,07511.89503,W,7.079,281.78,270412,,,A*77
$GPRMC,122159.00,A,3957.21917,N,07511.89235,W,8.142,282.11,270412,,,A*76
$GPRMC,122201.00,A,3957.21992,N,07511.89714,W,5.320,281.10,270412,,,A*7A
$GPRMC,122202.00,A,3957.21985,N,07511.89894,W,3.701,277.06,270412,,,A*77
$GPRMC,122203.00,A,3957.21974,N,07511.90004,W,1.941,277.00,270412,,,A*7F
$GPRMC,122205.00,A,3957.21991,N,07511.90082,W,0.117,276.98,270412,,,A*76
$GPRMC,122204.00,A,3957.21974,N,07511.90062,W,1.155,277.64,270412,,,A*77
$GPRMC,122206.00,A,3957.21996,N,07511.90094,W,0.033,275.54,270412,,,A*71
$GPRMC,122207.00,A,3957.21988,N,07511.90123,W,0.032,273.32,270412,,,A*75
$GPRMC,122208.00,A,3957.21979,N,07511.90156,W,0.013,,270412,,,A*6C
$GPRMC,122209.00,A,3957.21950,N,07511.90209,W,0.013,,270412,,,A*6F
$GPRMC,122210.00,A,3957.21929,N,07511.90257,W,0.032,271.08,270412,,,A*73
$GPRMC,122211.00,A,3957.21912,N,07511.90302,W,0.037,269.00,270412,,,A*7F
$GPRMC,122212.00,A,3957.21898,N,07511.90313,W,0.015,,270412,,,A*6C
$GPRMC,122214.00,A,3957.21884,N,07511.90316,W,0.340,282.24,270412,,,A*71
$GPRMC,122213.00,A,3957.21891,N,07511.90319,W,0.142,273.46,270412,,,A*77
$GPRMC,122215.00,A,3957.21882,N,07511.90298,W,0.568,291.03,270412,,,A*7A
$GPRMC,122216.00,A,3957.21877,N,07511.90290,W,0.543,299.04,270412,,,A*7D
$GPRMC,122217.00,A,3957.21873,N,07511.90307,W,0.218,305.96,270412,,,A*71
$GPRMC,122218.00,A,3957.21876,N,07511.90310,W,0.133,308.93,270412,,,A*7F
$GPRMC,122219.00,A,3957.21876,N,07511.90322,W,0.062,310.35,270412,,,A*7F
$GPRMC,122220.00,A,3957.21875,N,07511.90336,W,0.075,312.15,270412,,,A*75
$GPRMC,122221.00,A,3957.21870,N,07511.90349,W,0.034,314.23,270412,,,A*7F
$GPRMC,122222.00,A,3957.21870,N,07511.90359,W,0.203,312.88,270412,,,A*7C
$GPRMC,122223.00,A,3957.21873,N,07511.90387,W,0.973,311.21,270412,,,A*71
$GPRMC,122224.00,A,3957.21883,N,07511.90466,W,2.948,283.13,270412,,,A*70
$GPRMC,122225.00,A,3957.21906,N,07511.90617,W,5.069,281.80,270412,,,A*7C
$GPRMC,122226.00,A,3957.21938,N,07511.90834,W,6.546,282.91,270412,,,A*75
$GPRMC,122227.00,A,3957.21986,N,07511.91090,W,7.764,284.66,270412,,,A*7B
$GPRMC,122228.00,A,3957.22074,N,07511.91343,W,7.658,292.52,270412,,,A*70
$GPRMC,122229.00,A,3957.22179,N,07511.91601,W,7.956,296.90,270412,,,A*75
$GPRMC,122230.00,A,3957.22387,N,07511.91776,W,7.838,314.19,270412,,,A*7C
$GPRMC,122231.00,A,3957.22849,N,07511.91624,W,9.853,354.58,270412,,,A*70
$GPRMC,122232.00,A,3957.23279,N,07511.91577,W,14.054,6.23,270412,,,A*45
$GPRMC,122233.00,A,3957.23663,N,07511.91525,W,14.250,6.68,270412,,,A*45
$GPRMC,122234.00,A,3957.24150,N,07511.91435,W,17.401,10.77,270412,,,A*7A
$GPRMC,122236.00,A,3957.25127,N,07511.91257,W,18.069,9.63,270412,,,A*43
$GPRMC,122235.00,A,3957.24618,N,07511.91326,W,17.387,10.88,270412,,,A*7C
$GPRMC,122237.00,A,3957.25621,N,07511.91151,W,18.328,10.23,270412,,,A*7C
$GPRMC,122238.00,A,3957.26132,N,07511.91027,W,18.300,9.22,270412,,,A*46
$GPRMC,122239.00,A,3957.26632,N,07511.90928,W,18.282,9.34,270412,,,A*4B
$GPRMC,122240.00,A,3957.27129,N,07511.90847,W,18.166,9.36,270412,,,A*4A
$GPRMC,122241.00,A,3957.27612,N,07511.90743,W,17.788,8.93,270412,,,A*48
$GPRMC,122242.00,A,3957.28087,N,07511.90657,W,17.223,8.72,270412,,,A*41
$GPRMC,122243.00,A,3957.28510,N,07511.90610,W,15.368,5.76,270412,,,A*4D
$GPRMC,122244.00,A,3957.28822,N,07511.90520,W,11.656,7.80,270412,,,A*41
$GPRMC,122246.00,A,3957.29335,N,07511.90411,W,7.945,10.32,270412,,,A*49
$GPRMC,122245.00,A,3957.29099,N,07511.90455,W,9.634,9.37,270412,,,A*75
$GPRMC,122247.00,A,3957.29509,N,07511.90373,W,5.671,12.43,270412,,,A*4C
$GPRMC,122248.00,A,3957.29631,N,07511.90344,W,4.031,14.17,270412,,,A*4B
$GPRMC,122249.00,A,3957.29709,N,07511.90327,W,2.861,15.22,270412,,,A*49
$GPRMC,122250.00,A,3957.29768,N,07511.90319,W,2.040,15.58,270412,,,A*4D
$GPRMC,122251.00,A,3957.29799,N,07511.90316,W,1.128,15.76,270412,,,A*4D
$GPRMC,122252.00,A,3957.29801,N,07511.90331,W,0.185,13.17,270412,,,A*42
$GPRMC,122253.00,A,3957.29797,N,07511.90353,W,0.014,,270412,,,A*64
$GPRMC,122254.00,A,3957.29789,N,07511.90376,W,0.027,9.24,270412,,,A*7A
$GPRMC,122255.00,A,3957.29785,N,07511.90401,W,0.002,,270412,,,A*66
$GPRMC,122256.00,A,3957.29775,N,07511.90424,W,0.016,,270412,,,A*68
$GPRMC,122257.00,A,3957.29765,N,07511.90448,W,0.027,4.98,270412,,,A*7B
$GPRMC,122258.00,A,3957.29753,N,07511.90471,W,0.045,0.90,270412,,,A*73
$GPRMC,122259.00,A,3957.29741,N,07511.90494,W,0.062,357.12,270412,,,A*74
$GPRMC,122300.00,A,3957.29729,N,07511.90508,W,0.048,353.14,270412,,,A*79
$GPRMC,122301.00,A,3957.29719,N,07511.90517,W,0.078,349.87,270412,,,A*77
$GPRMC,122302.00,A,3957.29709,N,07511.90529,W,0.074,346.34,270412,,,A*73
$GPRMC,122303.00,A,3957.29699,N,07511.90538,W,0.110,342.66,270412,,,A*7A
$GPRMC,122304.00,A,3957.29691,N,07511.90540,W,0.051,338.89,270412,,,A*72
$GPRMC,122305.00,A,3957.29683,N,07511.90541,W,0.032,333.69,270412,,,A*71
$GPRMC,122306.00,A,3957.29676,N,07511.90549,W,0.325,330.04,270412,,,A*7D
$GPRMC,122307.00,A,3957.29672,N,07511.90565,W,0.042,334.52,270412,,,A*73
$GPRMC,122308.00,A,3957.29667,N,07511.90561,W,0.041,331.42,270412,,,A*7B
$GPRMC,122309.00,A,3957.29659,N,07511.90563,W,0.105,328.62,270412,,,A*7E
$GPRMC,122310.00,A,3957.29653,N,07511.90564,W,0.127,326.09,270412,,,A*78
$GPRMC,122312.00,A,3957.29641,N,07511.90572,W,0.102,320.76,270412,,,A*77
$GPRMC,122311.00,A,3957.29648,N,07511.90563,W,0.052,322.97,270412,,,A*74
$GPRMC,122313.00,A,3957.29631,N,07511.90585,W,0.174,318.58,270412,,,A*7F
$GPRMC,122315.00,A,3957.29602,N,07511.90620,W,0.145,310.88,270412,,,A*72
$GPRMC,122314.00,A,3957.29617,N,07511.90603,W,0.088,313.44,270412,,,A*75
$GPRMC,122316.00,A,3957.29585,N,07511.90639,W,0.138,308.57,270412,,,A*74
$GPRMC,122317.00,A,3957.29558,N,07511.90688,W,0.336,304.95,270412,,,A*71
$GPRMC,122318.00,A,3957.29545,N,07511.90694,W,0.230,301.84,270412,,,A*7D
$GPRMC,122319.00,A,3957.29544,N,07511.90697,W,0.352,304.92,270412,,,A*79
$GPRMC,122320.00,A,3957.29558,N,07511.90703,W,0.985,308.74,270412,,,A*76
$GPRMC,122321.00,A,3957.29606,N,07511.90687,W,2.412,12.84,270412,,,A*44
$GPRMC,122322.00,A,3957.29722,N,07511.90594,W,4.067,13.95,270412,,,A*40
$GPRMC,122323.00,A,3957.29864,N,07511.90513,W,5.228,13.05,270412,,,A*42
$GPRMC,122324.00,A,3957.30022,N,07511.90437,W,5.480,12.92,270412,,,A*4B
$GPRMC,122325.00,A,3957.30227,N,07511.90253,W,6.381,17.85,270412,,,A*4F
$GPRMC,122326.00,A,3957.30431,N,07511.89954,W,7.896,36.81,270412,,,A*42
$GPRMC,122327.00,A,3957.30639,N,07511.89666,W,9.418,44.68,270412,,,A*41
$GPRMC,122328.00,A,3957.30811,N,07511.89362,W,9.355,48.39,270412,,,A*4D
$GPRMC,122329.00,A,3957.30733,N,07511.88816,W,13.039,80.74,270412,,,A*75
$GPRMC,122330.00,A,3957.30769,N,07511.88302,W,13.308,82.98,270412,,,A*7D
$GPRMC,122331.00,A,3957.30749,N,07511.87758,W,13.638,87.84,270412,,,A*74
$GPRMC,122332.00,A,3957.30605,N,07511.87110,W,15.707,95.69,270412,,,A*7F
$GPRMC,122333.00,A,3957.30494,N,07511.86408,W,17.586,97.90,270412,,,A*74
$GPRMC,122334.00,A,3957.30380,N,07511.85767,W,18.090,99.25,270412,,,A*75
$GPRMC,122335.00,A,3957.30292,N,07511.85083,W,18.646,99.00,270412,,,A*71
$GPRMC,122336.00,A,3957.30216,N,07511.84374,W,19.451,98.47,270412,,,A*73
$GPRMC,122337.00,A,3957.30160,N,07511.83611,W,20.936,97.43,270412,,,A*7C
$GPRMC,122338.00,A,3957.30104,N,07511.82812,W,21.750,96.14,270412,,,A*71
$GPRMC,122339.00,A,3957.30045,N,07511.82023,W,21.489,96.63,270412,,,A*79
$GPRMC,122340.00,A,3957.29961,N,07511.81249,W,21.259,98.05,270412,,,A*78
$GPRMC,122341.00,A,3957.29877,N,07511.80488,W,20.873,99.10,270412,,,A*73
$GPRMC,122343.00,A,3957.29687,N,07511.79004,W,20.390,99.11,270412,,,A*71
$GPRMC,122342.00,A,3957.29780,N,07511.79741,W,20.577,99.14,270412,,,A*7A
$GPRMC,122344.00,A,3957.29596,N,07511.78272,W,20.392,98.95,270412,,,A*78
$GPRMC,122347.00,A,3957.29319,N,07511.76061,W,20.745,99.17,270412,,,A*71
$GPRMC,122346.00,A,3957.29415,N,07511.76801,W,20.440,99.39,270412,,,A*7F
$GPRMC,122345.00,A,3957.29505,N,07511.77537,W,20.561,99.12,270412,,,A*7E
$GPRMC,122349.00,A,3957.29144,N,07511.74558,W,21.316,98.84,270412,,,A*70
$GPRMC,122348.00,A,3957.29224,N,07511.75313,W,20.927,99.16,270412,,,A*7F
$GPRMC,122350.00,A,3957.29056,N,07511.73783,W,21.854,98.47,270412,,,A*7B
$GPRMC,122352.00,A,3957.28905,N,07511.72219,W,21.770,98.03,270412,,,A*79
$GPRMC,122351.00,A,3957.28984,N,07511.73003,W,21.868,98.32,270412,,,A*7F
$GPRMC,122353.00,A,3957.28822,N,07511.71443,W,21.646,98.48,270412,,,A*7D
$GPRMC,122354.00,A,3957.28726,N,07511.70675,W,21.412,98.85,270412,,,A*75
$GPRMC,122356.00,A,3957.28550,N,07511.69299,W,17.102,98.33,270412,,,A*76
$GPRMC,122355.00,A,3957.28639,N,07511.69949,W,19.758,98.92,270412,,,A*73
$GPRMC,122357.00,A,3957.28474,N,07511.68770,W,13.865,99.05,270412,,,A*7B
$GPRMC,122358.00,A,3957.28421,N,07511.68332,W,10.771,94.26,270412,,,A*73
$GPRMC,122359.00,A,3957.28391,N,07511.68029,W,6.991,88.43,270412,,,A*4E
$GPRMC,122400.00,A,3957.28362,N,07511.67882,W,3.169,81.33,270412,,,A*4B
$GPRMC,122401.00,A,3957.28354,N,07511.67817,W,1.609,80.95,270412,,,A*4D
$GPRMC,122402.00,A,3957.28351,N,07511.67794,W,0.628,79.04,270412,,,A*43
$GPRMC,122403.00,A,3957.28353,N,07511.67791,W,0.373,76.12,270412,,,A*46
$GPRMC,122404.00,A,3957.28354,N,07511.67795,W,0.140,71.01,270412,,,A*45
$GPRMC,122405.00,A,3957.28343,N,07511.67802,W,0.103,69.48,270412,,,A*40
$GPRMC,122406.00,A,3957.28327,N,07511.67811,W,0.119,67.98,270412,,,A*4B
$GPRMC,122407.00,A,3957.28291,N,07511.67840,W,0.172,66.68,270412,,,A*41
$GPRMC,122408.00,A,3957.28258,N,07511.67865,W,0.163,65.42,270412,,,A*47
$GPRMC,122409.00,A,3957.28237,N,07511.67874,W,0.169,64.32,270412,,,A*43
$GPRMC,122410.00,A,3957.28206,N,07511.67893,W,0.158,63.27,270412,,,A*41
$GPRMC,122411.00,A,3957.28184,N,07511.67905,W,0.143,62.17,270412,,,A*4F
$GPRMC,122412.00,A,3957.28174,N,07511.67905,W,0.151,61.19,270412,,,A*4D
$GPRMC,122413.00,A,3957.28165,N,07511.67904,W,0.158,60.20,270412,,,A*4F
$GPRMC,122414.00,A,3957.28145,N,07511.67917,W,0.118,59.14,270412,,,A*41
$GPRMC,122415.00,A,3957.28125,N,07511.67930,W,0.091,58.20,270412,,,A*45
$GPRMC,122416.00,A,3957.28118,N,07511.67932,W,0.200,67.99,270412,,,A*4E
$GPRMC,122417.00,A,3957.28108,N,07511.67936,W,0.081,66.54,270412,,,A*41
$GPRMC,122418.00,A,3957.28100,N,07511.67938,W,0.111,65.42,270412,,,A*44
$GPRMC,122419.00,A,3957.28094,N,07511.67941,W,0.103,64.35,270412,,,A*45
$GPRMC,122420.00,A,3957.28071,N,07511.67954,W,0.069,63.20,270412,,,A*4E
$GPRMC,122421.00,A,3957.28051,N,07511.67968,W,0.094,62.13,270412,,,A*41
$GPRMC,122423.00,A,3957.28015,N,07511.67993,W,0.038,60.09,270412,,,A*48
$GPRMC,122424.00,A,3957.28009,N,07511.67998,W,0.012,,270412,,,A*60
$GPRMC,122422.00,A,3957.28034,N,07511.67980,W,0.030,61.07,270412,,,A*4F
$GPRMC,122426.00,A,3957.27999,N,07511.68008,W,0.333,58.28,270412,,,A*4B
$GPRMC,122425.00,A,3957.27993,N,07511.68010,W,0.007,,270412,,,A*66
$GPRMC,122427.00,A,3957.28006,N,07511.68006,W,0.241,56.82,270412,,,A*4E
$GPRMC,122428.00,A,3957.28007,N,07511.68009,W,0.112,55.99,270412,,,A*43
$GPRMC,122429.00,A,3957.28005,N,07511.68015,W,0.103,55.43,270412,,,A*4A
$GPRMC,122430.00,A,3957.28008,N,07511.68032,W,0.683,50.00,270412,,,A*47
$GPRMC,122431.00,A,3957.28032,N,07511.68066,W,0.816,44.39,270412,,,A*43
$GPRMC,122433.00,A,3957.28021,N,07511.68101,W,0.066,33.72,270412,,,A*43
$GPRMC,122432.00,A,3957.28029,N,07511.68107,W,0.874,37.86,270412,,,A*48
$GPRMC,122434.00,A,3957.28017,N,07511.68116,W,0.041,28.41,270412,,,A*48
$GPRMC,122435.00,A,3957.28015,N,07511.68125,W,0.023,23.22,270412,,,A*41
$GPRMC,122436.00,A,3957.28016,N,07511.68131,W,0.006,,270412,,,A*6C
$GPRMC,122437.00,A,3957.28017,N,07511.68136,W,0.005,,270412,,,A*68
$GPRMC,122438.00,A,3957.28017,N,07511.68142,W,0.003,,270412,,,A*62
$GPRMC,122439.00,A,3957.28019,N,07511.68145,W,0.020,24.11,270412,,,A*43
$GPRMC,122440.00,A,3957.28022,N,07511.68127,W,1.033,28.28,270412,,,A*44
$GPRMC,122441.00,A,3957.28019,N,07511.68067,W,2.347,102.97,270412,,,A*76
$GPRMC,122442.00,A,3957.28003,N,07511.67938,W,4.620,103.69,270412,,,A*70
$GPRMC,122443.00,A,3957.27970,N,07511.67733,W,6.749,103.15,270412,,,A*71
$GPRMC,122444.00,A,3957.27921,N,07511.67455,W,8.903,103.69,270412,,,A*74
$GPRMC,122445.00,A,3957.27862,N,07511.67092,W,11.116,103.09,270412,,,A*4E
$GPRMC,122446.00,A,3957.27788,N,07511.66660,W,12.987,102.39,270412,,,A*4D
$GPRMC,122447.00,A,3957.27739,N,07511.66127,W,14.730,102.56,270412,,,A*4F
$GPRMC,122448.00,A,3957.27682,N,07511.65562,W,15.722,101.29,270412,,,A*4E
$GPRMC,122449.00,A,3957.27616,N,07511.64988,W,16.010,100.37,270412,,,A*40
$GPRMC,122450.00,A,3957.27561,N,07511.64383,W,16.476,100.56,270412,,,A*49
$GPRMC,122451.00,A,3957.27488,N,07511.63781,W,16.837,100.84,270412,,,A*49
$GPRMC,122452.00,A,3957.27410,N,07511.63166,W,16.707,104.37,270412,,,A*44
$GPRMC,122453.00,A,3957.27378,N,07511.62529,W,17.095,102.13,270412,,,A*4F
$GPRMC,122454.00,A,3957.27346,N,07511.61887,W,17.327,100.63,270412,,,A*40
$GPRMC,122455.00,A,3957.27303,N,07511.61231,W,17.494,99.97,270412,,,A*72
$GPRMC,122456.00,A,3957.27286,N,07511.60563,W,17.671,99.47,270412,,,A*78
$GPRMC,122457.00,A,3957.27214,N,07511.59929,W,17.756,100.20,270412,,,A*4E
$GPRMC,122458.00,A,3957.27167,N,07511.59268,W,17.803,100.69,270412,,,A*4A
$GPRMC,122459.00,A,3957.27106,N,07511.58613,W,18.099,100.89,270412,,,A*4F
$GPRMC,122500.00,A,3957.27047,N,07511.57951,W,18.148,100.64,270412,,,A*4E
$GPRMC,122501.00,A,3957.27020,N,07511.57260,W,18.229,99.89,270412,,,A*71
$GPRMC,122503.00,A,3957.26979,N,07511.55853,W,18.169,98.33,270412,,,A*78
$GPRMC,122502.00,A,3957.27003,N,07511.56556,W,18.030,99.71,270412,,,A*7D
$GPRMC,122504.00,A,3957.26935,N,07511.55176,W,17.872,98.00,270412,,,A*75
$GPRMC,122505.00,A,3957.26869,N,07511.54521,W,18.012,97.79,270412,,,A*7B
$GPRMC,122506.00,A,3957.26790,N,07511.53867,W,18.156,98.29,270412,,,A*72
$GPRMC,122507.00,A,3957.26711,N,07511.53219,W,17.841,98.57,270412,,,A*70
$GPRMC,122508.00,A,3957.26629,N,07511.52576,W,17.920,98.88,270412,,,A*7E
$GPRMC,122509.00,A,3957.26544,N,07511.51938,W,17.683,99.06,270412,,,A*73
$GPRMC,122510.00,A,3957.26459,N,07511.51315,W,17.174,99.33,270412,,,A*7A
$GPRMC,122511.00,A,3957.26373,N,07511.50704,W,17.074,99.56,270412,,,A*73
$GPRMC,122512.00,A,3957.26280,N,07511.50097,W,17.100,99.92,270412,,,A*7A
$GPRMC,122513.00,A,3957.26185,N,07511.49474,W,17.851,100.44,270412,,,A*4B
$GPRMC,122514.00,A,3957.26084,N,07511.48816,W,18.963,100.57,270412,,,A*48
$GPRMC,122515.00,A,3957.25979,N,07511.48127,W,19.653,100.40,270412,,,A*41
$GPRMC,122516.00,A,3957.25874,N,07511.47432,W,19.433,99.98,270412,,,A*70
$GPRMC,122517.00,A,3957.25780,N,07511.46743,W,19.110,99.26,270412,,,A*70
$GPRMC,122518.00,A,3957.25688,N,07511.46070,W,18.636,99.08,270412,,,A*7F
$GPRMC,122519.00,A,3957.25593,N,07511.45423,W,17.682,99.09,270412,,,A*77
$GPRMC,122520.00,A,3957.25514,N,07511.44813,W,16.371,99.06,270412,,,A*7B
$GPRMC,122521.00,A,3957.25440,N,07511.44252,W,15.003,98.79,270412,,,A*79
$GPRMC,122522.00,A,3957.25372,N,07511.43735,W,13.922,98.89,270412,,,A*7C
$GPRMC,122523.00,A,3957.25310,N,07511.43263,W,12.470,99.24,270412,,,A*72
$GPRMC,122524.00,A,3957.25254,N,07511.42851,W,10.715,99.33,270412,,,A*7A
$GPRMC,122525.00,A,3957.25208,N,07511.42512,W,8.410,100.08,270412,,,A*7E
$GPRMC,122526.00,A,3957.25172,N,07511.42255,W,6.304,99.56,270412,,,A*41
$GPRMC,122527.00,A,3957.25143,N,07511.42059,W,4.884,99.39,270412,,,A*44
$GPRMC,122528.00,A,3957.25120,N,07511.41913,W,3.522,98.88,270412,,,A*47
$GPRMC,122530.00,A,3957.25080,N,07511.41689,W,3.127,98.07,270412,,,A*4F
$GPRMC,122529.00,A,3957.25100,N,07511.41798,W,3.118,98.95,270412,,,A*48
$GPRMC,122531.00,A,3957.25060,N,07511.41598,W,2.134,97.77,270412,,,A*48
$GPRMC,122532.00,A,3957.25045,N,07511.41526,W,1.996,97.85,270412,,,A*47
$GPRMC,122534.00,A,3957.25002,N,07511.41329,W,4.396,97.68,270412,,,A*47
$GPRMC,122533.00,A,3957.25031,N,07511.41446,W,2.653,98.91,270412,,,A*4D
$GPRMC,122535.00,A,3957.24978,N,07511.41133,W,6.609,98.05,270412,,,A*4F
$GPRMC,122538.00,A,3957.24867,N,07511.40073,W,11.344,97.27,270412,,,A*7C
$GPRMC,122537.00,A,3957.24898,N,07511.40477,W,11.222,97.21,270412,,,A*74
$GPRMC,122539.00,A,3957.24835,N,07511.39656,W,11.789,96.95,270412,,,A*78
$GPRMC,122541.00,A,3957.24740,N,07511.38751,W,13.727,95.91,270412,,,A*7C
$GPRMC,122542.00,A,3957.24690,N,07511.38238,W,14.783,96.10,270412,,,A*7A
$GPRMC,122540.00,A,3957.24790,N,07511.39221,W,12.616,96.21,270412,,,A*79
$GPRMC,122543.00,A,3957.24635,N,07511.37689,W,15.787,96.63,270412,,,A*74
$GPRMC,122544.00,A,3957.24581,N,07511.37103,W,16.433,98.06,270412,,,A*78
$GPRMC,122545.00,A,3957.24524,N,07511.36497,W,17.176,98.99,270412,,,A*7C
$GPRMC,122546.00,A,3957.24451,N,07511.35873,W,17.550,99.40,270412,,,A*7C
$GPRMC,122547.00,A,3957.24373,N,07511.35235,W,17.992,99.32,270412,,,A*75
$GPRMC,122548.00,A,3957.24285,N,07511.34597,W,17.833,99.62,270412,,,A*73
$GPRMC,122549.00,A,3957.24206,N,07511.33954,W,18.036,99.39,270412,,,A*71
$GPRMC,122550.00,A,3957.24129,N,07511.33298,W,18.479,99.22,270412,,,A*79
$GPRMC,122551.00,A,3957.24042,N,07511.32628,W,18.977,99.11,270412,,,A*79
$GPRMC,122552.00,A,3957.23954,N,07511.31941,W,19.483,99.33,270412,,,A*77
$GPRMC,122553.00,A,3957.23863,N,07511.31240,W,19.707,99.25,270412,,,A*71
$GPRMC,122554.00,A,3957.23771,N,07511.30532,W,19.883,99.03,270412,,,A*7E
$GPRMC,122555.00,A,3957.23681,N,07511.29824,W,19.779,99.09,270412,,,A*73
$GPRMC,122556.00,A,3957.23589,N,07511.29113,W,19.973,99.25,270412,,,A*7C
$GPRMC,122557.00,A,3957.23495,N,07511.28390,W,20.517,99.43,270412,,,A*7D
$GPRMC,122558.00,A,3957.23397,N,07511.27648,W,20.956,99.29,270412,,,A*7D
$GPRMC,122559.00,A,3957.23300,N,07511.26900,W,20.928,99.28,270412,,,A*78
$GPRMC,122600.00,A,3957.23201,N,07511.26151,W,20.990,99.21,270412,,,A*71
$GPRMC,122601.00,A,3957.23102,N,07511.25393,W,21.477,98.96,270412,,,A*77
$GPRMC,122602.00,A,3957.23001,N,07511.24626,W,21.444,99.14,270412,,,A*77
$GPRMC,122603.00,A,3957.22904,N,07511.23865,W,21.004,100.13,270412,,,A*43
$GPRMC,122604.00,A,3957.22790,N,07511.23123,W,20.816,101.91,270412,,,A*4D
$GPRMC,122605.00,A,3957.22660,N,07511.22387,W,20.849,103.23,270412,,,A*4E
$GPRMC,122606.00,A,3957.22526,N,07511.21646,W,21.209,102.96,270412,,,A*47
$GPRMC,122607.00,A,3957.22390,N,07511.20882,W,22.097,102.99,270412,,,A*43
$GPRMC,122608.00,A,3957.22267,N,07511.20086,W,22.748,102.12,270412,,,A*4F
$GPRMC,122609.00,A,3957.22181,N,07511.19255,W,22.938,99.77,270412,,,A*7A
$GPRMC,122611.00,A,3957.21990,N,07511.17577,W,23.628,99.09,270412,,,A*77
$GPRMC,122610.00,A,3957.22086,N,07511.18423,W,23.207,99.31,270412,,,A*76
$GPRMC,122613.00,A,3957.21786,N,07511.15826,W,24.782,99.59,270412,,,A*74
$GPRMC,122612.00,A,3957.21891,N,07511.16711,W,24.364,99.18,270412,,,A*7D
$GPRMC,122614.00,A,3957.21675,N,07511.14929,W,25.198,99.26,270412,,,A*75
$GPRMC,122616.00,A,3957.21456,N,07511.13120,W,24.985,98.96,270412,,,A*7D
$GPRMC,122615.00,A,3957.21565,N,07511.14021,W,25.285,99.11,270412,,,A*7C
$GPRMC,122617.00,A,3957.21353,N,07511.12234,W,24.405,98.98,270412,,,A*72
$GPRMC,122618.00,A,3957.21239,N,07511.11370,W,23.909,99.76,270412,,,A*75
$GPRMC,122619.00,A,3957.21126,N,07511.10535,W,23.047,100.67,270412,,,A*4D
$GPRMC,122620.00,A,3957.21010,N,07511.09735,W,22.012,100.50,270412,,,A*4C
$GPRMC,122621.00,A,3957.20887,N,07511.09006,W,19.879,101.00,270412,,,A*44
$GPRMC,122622.00,A,3957.20749,N,07511.08367,W,17.536,102.32,270412,,,A*45
$GPRMC,122623.00,A,3957.20617,N,07511.07817,W,14.863,102.69,270412,,,A*4D
$GPRMC,122624.00,A,3957.20511,N,07511.07330,W,13.358,102.30,270412,,,A*49
$GPRMC,122625.00,A,3957.20423,N,07511.06876,W,12.677,101.50,270412,,,A*4C
$GPRMC,122626.00,A,3957.20348,N,07511.06439,W,12.187,100.99,270412,,,A*4E
$GPRMC,122627.00,A,3957.20271,N,07511.06008,W,12.302,100.36,270412,,,A*48
$GPRMC,122628.00,A,3957.20212,N,07511.05557,W,12.983,98.98,270412,,,A*79
$GPRMC,122629.00,A,3957.20150,N,07511.05075,W,14.044,99.50,270412,,,A*79
$GPRMC,122630.00,A,3957.20081,N,07511.04558,W,14.890,99.80,270412,,,A*7B
$GPRMC,122631.00,A,3957.20008,N,07511.04015,W,15.596,99.98,270412,,,A*74
$GPRMC,122632.00,A,3957.19934,N,07511.03441,W,16.614,99.75,270412,,,A*70
$GPRMC,122633.00,A,3957.19870,N,07511.02856,W,16.249,98.31,270412,,,A*76
$GPRMC,122634.00,A,3957.19809,N,07511.02286,W,15.690,98.14,270412,,,A*7C
$GPRMC,122635.00,A,3957.19742,N,07511.01732,W,15.278,98.71,270412,,,A*75
$GPRMC,122636.00,A,3957.19682,N,07511.01180,W,15.433,98.20,270412,,,A*79
$GPRMC,122637.00,A,3957.19636,N,07511.00617,W,15.700,98.97,270412,,,A*70
$GPRMC,122638.00,A,3957.19591,N,07511.00039,W,16.168,99.28,270412,,,A*75
$GPRMC,122639.00,A,3957.19548,N,07510.99441,W,16.743,99.17,270412,,,A*79
$GPRMC,122640.00,A,3957.19472,N,07510.98847,W,16.791,99.50,270412,,,A*78
$GPRMC,122641.00,A,3957.19403,N,07510.98236,W,17.300,98.84,270412,,,A*76
$GPRMC,122642.00,A,3957.19378,N,07510.97610,W,17.365,99.55,270412,,,A*7F
$GPRMC,122644.00,A,3957.19288,N,07510.96373,W,16.868,99.54,270412,,,A*70
$GPRMC,122643.00,A,3957.19344,N,07510.96986,W,17.046,99.29,270412,,,A*79
$GPRMC,122645.00,A,3957.19232,N,07510.95772,W,16.492,99.05,270412,,,A*7B
$GPRMC,122646.00,A,3957.19197,N,07510.95174,W,15.985,98.78,270412,,,A*77
$GPRMC,122648.00,A,3957.19084,N,07510.94066,W,14.378,98.98,270412,,,A*7E
$GPRMC,122647.00,A,3957.19138,N,07510.94606,W,15.362,98.84,270412,,,A*70
$GPRMC,122649.00,A,3957.19031,N,07510.93559,W,13.602,98.96,270412,,,A*7E
$GPRMC,122650.00,A,3957.18965,N,07510.93103,W,12.215,98.92,270412,,,A*73
$GPRMC,122651.00,A,3957.18907,N,07510.92708,W,10.116,101.87,270412,,,A*4D
$GPRMC,122652.00,A,3957.18814,N,07510.92394,W,8.780,115.47,270412,,,A*75
$GPRMC,122653.00,A,3957.18680,N,07510.92140,W,8.370,131.42,270412,,,A*74
$GPRMC,122654.00,A,3957.18493,N,07510.91962,W,8.309,152.27,270412,,,A*70
$GPRMC,122655.00,A,3957.18249,N,07510.91879,W,9.164,171.81,270412,,,A*7E
$GPRMC,122656.00,A,3957.17954,N,07510.91904,W,10.980,190.19,270412,,,A*4A
$GPRMC,122657.00,A,3957.17602,N,07510.92030,W,13.892,197.80,270412,,,A*4C
$GPRMC,122658.00,A,3957.17185,N,07510.92222,W,16.164,200.18,270412,,,A*43
$GPRMC,122659.00,A,3957.16727,N,07510.92451,W,17.549,201.41,270412,,,A*48
$GPRMC,122700.00,A,3957.16253,N,07510.92707,W,17.948,203.46,270412,,,A*4B
$GPRMC,122701.00,A,3957.15785,N,07510.92981,W,17.795,204.95,270412,,,A*40
$GPRMC,122702.00,A,3957.15320,N,07510.93271,W,18.166,206.09,270412,,,A*4F
$GPRMC,122703.00,A,3957.14843,N,07510.93581,W,19.117,206.95,270412,,,A*4B
$GPRMC,122704.00,A,3957.14354,N,07510.93904,W,19.310,206.83,270412,,,A*42
$GPRMC,122705.00,A,3957.13876,N,07510.94221,W,18.448,206.97,270412,,,A*4A
$GPRMC,122706.00,A,3957.13428,N,07510.94517,W,16.958,206.56,270412,,,A*43
$GPRMC,122707.00,A,3957.13026,N,07510.94782,W,14.832,206.94,270412,,,A*47
$GPRMC,122708.00,A,3957.12685,N,07510.95012,W,12.347,207.55,270412,,,A*4A
$GPRMC,122709.00,A,3957.12413,N,07510.95199,W,9.511,207.57,270412,,,A*79
$GPRMC,122710.00,A,3957.12208,N,07510.95339,W,6.944,207.09,270412,,,A*7D
$GPRMC,122711.00,A,3957.12060,N,07510.95439,W,4.918,206.73,270412,,,A*70
$GPRMC,122712.00,A,3957.11966,N,07510.95504,W,2.738,206.76,270412,,,A*7F
$GPRMC,122713.00,A,3957.11920,N,07510.95537,W,1.098,206.68,270412,,,A*7D
$GPRMC,122714.00,A,3957.11906,N,07510.95548,W,0.188,206.43,270412,,,A*7E
$GPRMC,122715.00,A,3957.11905,N,07510.95550,W,0.019,,270412,,,A*61
$GPRMC,122716.00,A,3957.11906,N,07510.95552,W,0.012,,270412,,,A*68
$GPRMC,122717.00,A,3957.11907,N,07510.95553,W,0.009,,270412,,,A*63
$GPRMC,122718.00,A,3957.11909,N,07510.95555,W,0.010,,270412,,,A*6C
$GPRMC,122719.00,A,3957.11912,N,07510.95556,W,0.005,,270412,,,A*60
$GPRMC,122720.00,A,3957.11916,N,07510.95557,W,0.003,,270412,,,A*69
$GPRMC,122721.00,A,3957.11919,N,07510.95557,W,0.005,,270412,,,A*61
$GPRMC,122722.00,A,3957.11922,N,07510.95558,W,0.003,,270412,,,A*63
$GPRMC,122723.00,A,3957.11919,N,07510.95564,W,0.001,,270412,,,A*67
$GPRMC,122724.00,A,3957.11914,N,07510.95571,W,0.015,,270412,,,A*6C
$GPRMC,122725.00,A,3957.11909,N,07510.95577,W,0.014,,270412,,,A*66
$GPRMC,122726.00,A,3957.11905,N,07510.95584,W,0.018,,270412,,,A*69
$GPRMC,122727.00,A,3957.11899,N,07510.95591,W,0.017,,270412,,,A*67
$GPRMC,122728.00,A,3957.11893,N,07510.95598,W,0.018,,270412,,,A*64
$GPRMC,122729.00,A,3957.11889,N,07510.95605,W,0.022,207.13,270412,,,A*79
$GPRMC,122730.00,A,3957.11885,N,07510.95612,W,0.038,207.20,270412,,,A*70
$GPRMC,122731.00,A,3957.11873,N,07510.95627,W,0.686,207.28,270412,,,A*75
$GPRMC,122732.00,A,3957.11824,N,07510.95664,W,2.912,207.15,270412,,,A*7D
$GPRMC,122733.00,A,3957.11716,N,07510.95738,W,5.300,206.54,270412,,,A*70
$GPRMC,122734.00,A,3957.11551,N,07510.95850,W,7.450,206.34,270412,,,A*71
$GPRMC,122735.00,A,3957.11336,N,07510.95989,W,9.208,205.69,270412,,,A*7C
$GPRMC,122736.00,A,3957.11087,N,07510.96145,W,10.059,205.07,270412,,,A*4B
$GPRMC,122737.00,A,3957.10822,N,07510.96310,W,10.474,205.52,270412,,,A*45
$GPRMC,122738.00,A,3957.10564,N,07510.96503,W,10.417,213.55,270412,,,A*44
$GPRMC,122740.00,A,3957.10274,N,07510.971