$GPRMC,122830.00,A,3957.11492,N,07511.10711,W,21.777,279.29,270412,,,A*44
$GPRMC,122831.00,A,3957.11597,N,07511.11504,W,22.398,279.05,270412,,,A*4E
$GPRMC,122832.00,A,3957.11702,N,07511.12308,W,22.453,279.06,270412,,,A*49
$GPRMC,122833.00,A,3957.11805,N,07511.13110,W,22.279,279.05,270412,,,A*47
$GPRMC,122834.00,A,3957.11903,N,07511.13903,W,21.746,279.25,270412,,,A*45
$GPRMC,122835.00,A,3957.12003,N,07511.14674,W,21.267,279.24,270412,,,A*41
$GPRMC,122836.00,A,3957.12102,N,07511.15435,W,21.320,278.99,270412,,,A*41
$GPRMC,122837.00,A,3957.12194,N,07511.16201,W,21.393,278.93,270412,,,A*4F
$GPRMC,122838.00,A,3957.12297,N,07511.16994,W,21.964,279.43,270412,,,A*49
$GPRMC,122841.00,A,3957.12605,N,07511.19351,W,21.378,279.01,270412,,,A*45
$GPRMC,122840.00,A,3957.12505,N,07511.18574,W,22.009,279.04,270412,,,A*44
$GPRMC,122839.00,A,3957.12403,N,07511.17783,W,22.135,279.39,270412,,,A*48
$GPRMC,122842.00,A,3957.12702,N,07511.20105,W,20.747,279.07,270412,,,A*46
$GPRMC,122843.00,A,3957.12836,N,07511.20854,W,20.229,279.00,270412,,,A*48
$GPRMC,122845.00,A,3957.13057,N,07511.22289,W,19.534,279.64,270412,,,A*4B
$GPRMC,122846.00,A,3957.13166,N,07511.22981,W,19.333,279.31,270412,,,A*49
$GPRMC,122847.00,A,3957.13277,N,07511.23666,W,19.143,279.13,270412,,,A*49
$GPRMC,122848.00,A,3957.13373,N,07511.24334,W,18.623,278.83,270412,,,A*4E
$GPRMC,122850.00,A,3957.13536,N,07511.25595,W,17.210,279.22,270412,,,A*4D
$GPRMC,122849.00,A,3957.13459,N,07511.24976,W,17.682,279.10,270412,,,A*43
$GPRMC,122852.00,A,3957.13700,N,07511.26771,W,15.340,279.93,270412,,,A*4F
$GPRMC,122854.00,A,3957.13821,N,07511.27787,W,12.825,279.55,270412,,,A*48
$GPRMC,122853.00,A,3957.13761,N,07511.27306,W,14.039,279.60,270412,,,A*4C
$GPRMC,122855.00,A,3957.13874,N,07511.28217,W,11.418,279.33,270412,,,A*4B
$GPRMC,122856.00,A,3957.13921,N,07511.28607,W,10.820,279.17,270412,,,A*4C
$GPRMC,122857.00,A,3957.13966,N,07511.28986,W,10.613,280.67,270412,,,A*47
$GPRMC,122859.00,A,3957.14038,N,07511.29765,W,11.010,281.67,270412,,,A*4B
$GPRMC,122900.00,A,3957.14082,N,07511.30166,W,11.786,280.80,270412,,,A*4A
$GPRMC,122902.00,A,3957.14232,N,07511.30961,W,10.606,287.92,270412,,,A*42
$GPRMC,122903.00,A,3957.14318,N,07511.31279,W,8.386,290.67,270412,,,A*71
$GPRMC,122904.00,A,3957.14377,N,07511.31516,W,5.745,285.89,270412,,,A*73
$GPRMC,122906.00,A,3957.14456,N,07511.31772,W,3.282,281.45,270412,,,A*79
$GPRMC,122905.00,A,3957.14436,N,07511.31658,W,4.160,283.63,270412,,,A*7B
$GPRMC,122908.00,A,3957.14480,N,07511.31928,W,1.334,281.62,270412,,,A*76
$GPRMC,122909.00,A,3957.14477,N,07511.31948,W,0.270,281.31,270412,,,A*7F
$GPRMC,122911.00,A,3957.14474,N,07511.31992,W,1.678,282.01,270412,,,A*7F
$GPRMC,122910.00,A,3957.14475,N,07511.31956,W,0.676,282.05,270412,,,A*7C
$GPRMC,122912.00,A,3957.14515,N,07511.32026,W,1.924,282.05,270412,,,A*7D
$GPRMC,122913.00,A,3957.14570,N,07511.32062,W,2.304,281.30,270412,,,A*71
$GPRMC,122915.00,A,3957.14666,N,07511.32195,W,3.294,280.86,270412,,,A*7F
$GPRMC,122914.00,A,3957.14645,N,07511.32098,W,2.907,284.38,270412,,,A*72
$GPRMC,122916.00,A,3957.14680,N,07511.32311,W,3.586,279.44,270412,,,A*76
$GPRMC,122917.00,A,3957.14782,N,07511.32436,W,3.827,284.81,270412,,,A*7B
$GPRMC,122918.00,A,3957.14876,N,07511.32548,W,4.055,284.83,270412,,,A*70
$GPRMC,122920.00,A,3957.15009,N,07511.32811,W,4.508,285.75,270412,,,A*7E
$GPRMC,122919.00,A,3957.14978,N,07511.32673,W,4.301,287.67,270412,,,A*7E
$GPRMC,122924.00,A,3957.15077,N,07511.33242,W,1.758,279.07,270412,,,A*7A
$GPRMC,122923.00,A,3957.15079,N,07511.33179,W,2.608,278.75,270412,,,A*7B
$GPRMC,122922.00,A,3957.15061,N,07511.33087,W,3.390,281.35,270412,,,A*74
$GPRMC,122925.00,A,3957.15039,N,07511.33290,W,1.129,278.96,270412,,,A*77
$GPRMC,122926.00,A,3957.14993,N,07511.33326,W,0.526,279.10,270412,,,A*75
$GPRMC,122928.00,A,3957.14941,N,07511.33315,W,0.033,277.79,270412,,,A*74
$GPRMC,122927.00,A,3957.14966,N,07511.33325,W,0.134,279.46,270412,,,A*79
$GPRMC,122929.00,A,3957.14929,N,07511.33303,W,0.020,277.32,270412,,,A*71
$GPRMC,122930.00,A,3957.14924,N,07511.33292,W,0.015,,270412,,,A*66
$GPRMC,122931.00,A,3957.14845,N,07511.33354,W,0.330,277.38,270412,,,A*79
$GPRMC,122933.00,A,3957.14769,N,07511.33445,W,0.608,277.93,270412,,,A*72
$GPRMC,122932.00,A,3957.14768,N,07511.33424,W,0.829,277.51,270412,,,A*76
$GPRMC,122934.00,A,3957.14774,N,07511.33455,W,0.379,276.14,270412,,,A*75
$GPRMC,122935.00,A,3957.14790,N,07511.33448,W,0.022,275.09,270412,,,A*70
$GPRMC,122936.00,A,3957.14792,N,07511.33447,W,0.007,,270412,,,A*6E
$GPRMC,122938.00,A,3957.14797,N,07511.33443,W,0.013,,270412,,,A*64
$GPRMC,122939.00,A,3957.14800,N,07511.33440,W,0.023,271.70,270412,,,A*79
$GPRMC,122941.00,A,3957.14806,N,07511.33434,W,0.016,,270412,,,A*68
$GPRMC,122943.00,A,3957.14813,N,07511.33427,W,0.006,,270412,,,A*6D
$GPRMC,122944.00,A,3957.14817,N,07511.33432,W,0.450,270.37,270412,,,A*72
$GPRMC,122946.00,A,3957.14827,N,07511.33527,W,1.771,271.64,270412,,,A*70
$GPRMC,122945.00,A,3957.14821,N,07511.33466,W,1.467,270.99,270412,,,A*76
$GPRMC,122949.00,A,3957.14854,N,07511.33798,W,3.243,280.65,270412,,,A*74
$GPRMC,122947.00,A,3957.14834,N,07511.33599,W,2.071,282.73,270412,,,A*78
$GPRMC,122948.00,A,3957.14845,N,07511.33686,W,2.703,280.69,270412,,,A*77
$GPRMC,122951.00,A,3957.14887,N,07511.34116,W,5.323,280.56,270412,,,A*75
$GPRMC,122950.00,A,3957.14870,N,07511.33936,W,4.329,281.52,270412,,,A*7F
$GPRMC,122953.00,A,3957.14929,N,07511.34545,W,6.108,279.19,270412,,,A*75
$GPRMC,122952.00,A,3957.14906,N,07511.34325,W,6.007,279.25,270412,,,A*78
$GPRMC,122956.00,A,3957.14996,N,07511.35285,W,7.162,279.08,270412,,,A*73
$GPRMC,122955.00,A,3957.14972,N,07511.35028,W,7.053,278.53,270412,,,A*73
$GPRMC,122957.00,A,3957.15034,N,07511.35527,W,6.500,279.18,270412,,,A*7D
$GPRMC,122958.00,A,3957.15053,N,07511.35734,W,5.123,278.84,270412,,,A*71
$GPRMC,122959.00,A,3957.15070,N,07511.35882,W,3.250,278.90,270412,,,A*77
$GPRMC,123000.00,A,3957.15083,N,07511.35972,W,1.730,279.00,270412,,,A*78
$GPRMC,123001.00,A,3957.15084,N,07511.36019,W,0.710,278.94,270412,,,A*76
$GPRMC,123002.00,A,3957.15083,N,07511.36037,W,0.084,278.69,270412,,,A*76
$GPRMC,123003.00,A,3957.15082,N,07511.36044,W,0.006,,270412,,,A*64
$GPRMC,123004.00,A,3957.15080,N,07511.36048,W,0.004,,270412,,,A*6F
$GPRMC,123005.00,A,3957.15079,N,07511.36052,W,0.008,,270412,,,A*6F
$GPRMC,123008.00,A,3957.15079,N,07511.36091,W,0.732,278.69,270412,,,A*7F
$GPRMC,123007.00,A,3957.15077,N,07511.36068,W,0.399,278.54,270412,,,A*73
$GPRMC,123006.00,A,3957.15078,N,07511.36056,W,0.008,,270412,,,A*69
$GPRMC,123009.00,A,3957.15080,N,07511.36115,W,0.465,278.67,270412,,,A*7A
$GPRMC,123012.00,A,3957.15083,N,07511.36179,W,1.579,277.19,270412,,,A*72
$GPRMC,123011.00,A,3957.15079,N,07511.36143,W,0.336,277.00,270412,,,A*79
$GPRMC,123010.00,A,3957.15079,N,07511.36130,W,0.370,277.12,270412,,,A*7D
$GPRMC,123013.00,A,3957.15094,N,07511.36264,W,3.073,279.64,270412,,,A*73
$GPRMC,123014.00,A,3957.15111,N,07511.36410,W,4.974,279.56,270412,,,A*75
$GPRMC,123016.00,A,3957.15182,N,07511.36884,W,8.228,280.17,270412,,,A*71
$GPRMC,123015.00,A,3957.15143,N,07511.36618,W,6.599,280.05,270412,,,A*74
$GPRMC,123017.00,A,3957.15225,N,07511.37209,W,9.844,279.63,270412,,,A*74
$GPRMC,123018.00,A,3957.15271,N,07511.37579,W,10.840,278.87,270412,,,A*4D
$GPRMC,123019.00,A,3957.15320,N,07511.37990,W,12.008,278.80,270412,,,A*43
$GPRMC,123020.00,A,3957.15373,N,07511.38438,W,12.940,279.05,270412,,,A*46
$GPRMC,123022.00,A,3957.15506,N,07511.39442,W,15.021,278.95,270412,,,A*4D
$GPRMC,123021.00,A,3957.15432,N,07511.38922,W,14.029,279.68,270412,,,A*48
$GPRMC,123023.00,A,3957.15575,N,07511.39999,W,15.992,278.87,270412,,,A*41
$GPRMC,123024.00,A,3957.15643,N,07511.40592,W,16.977,278.80,270412,,,A*46
$GPRMC,123025.00,A,3957.15710,N,07511.41202,W,16.968,278.81,270412,,,A*40
$GPRMC,123026.00,A,3957.15794,N,07511.41899,W,19.455,279.48,270412,,,A*4F
$GPRMC,123027.00,A,3957.15889,N,07511.42591,W,19.292,280.12,270412,,,A*4F
$GPRMC,123028.00,A,3957.15973,N,07511.43304,W,19.770,279.16,270412,,,A*44
$GPRMC,123030.00,A,3957.16165,N,07511.44750,W,20.147,279.35,270412,,,A*4A
$GPRMC,123029.00,A,3957.16072,N,07511.44027,W,20.325,279.20,270412,,,A*40
$GPRMC,123031.00,A,3957.16259,N,07511.45452,W,19.418,279.15,270412,,,A*40
$GPRMC,123032.00,A,3957.16339,N,07511.46127,W,18.604,278.18,270412,,,A*42
$GPRMC,123034.00,A,3957.16539,N,07511.47270,W,15.333,279.08,270412,,,A*4E
$GPRMC,123033.00,A,3957.16428,N,07511.46766,W,18.008,278.58,270412,,,A*49
$GPRMC,123035.00,A,3957.16634,N,07511.47752,W,13.529,279.26,270412,,,A*43
$GPRMC,123036.00,A,3957.16741,N,07511.48143,W,11.238,279.92,270412,,,A*40
$GPRMC,123037.00,A,3957.16803,N,07511.48488,W,9.058,278.39,270412,,,A*77
$GPRMC,123038.00,A,3957.16829,N,07511.48769,W,6.695,278.44,270412,,,A*7E
$GPRMC,123039.00,A,3957.16855,N,07511.48973,W,5.044,278.31,270412,,,A*7A
$GPRMC,123040.00,A,3957.16870,N,07511.49113,W,3.401,271.47,270412,,,A*77
$GPRMC,123041.00,A,3957.16888,N,07511.49184,W,1.684,271.31,270412,,,A*73
$GPRMC,123042.00,A,3957.16904,N,07511.49200,W,0.236,270.79,270412,,,A*7B
$GPRMC,123043.00,A,3957.16924,N,07511.49186,W,0.027,269.75,270412,,,A*73
$GPRMC,123044.00,A,3957.16934,N,07511.49179,W,0.022,267.56,270412,,,A*7F
$GPRMC,123046.00,A,3957.16945,N,07511.49169,W,0.072,261.53,270412,,,A*7C
$GPRMC,123045.00,A,3957.16939,N,07511.49176,W,0.021,266.94,270412,,,A*70
$GPRMC,123047.00,A,3957.16947,N,07511.49164,W,0.006,,270412,,,A*6C
$GPRMC,123048.00,A,3957.16949,N,07511.49162,W,0.001,,270412,,,A*6C
$GPRMC,123050.00,A,3957.16943,N,07511.49169,W,0.007,,270412,,,A*62
$GPRMC,123049.00,A,3957.16947,N,07511.49164,W,0.010,,270412,,,A*65
$GPRMC,123051.00,A,3957.16938,N,07511.49174,W,0.009,,270412,,,A*6D
$GPRMC,123052.00,A,3957.16928,N,07511.49188,W,0.167,260.08,270412,,,A*77
$GPRMC,123053.00,A,3957.16919,N,07511.49201,W,0.006,,270412,,,A*62
$GPRMC,123055.00,A,3957.16903,N,07511.49218,W,0.004,,270412,,,A*65
$GPRMC,123054.00,A,3957.16911,N,07511.49209,W,0.009,,270412,,,A*6A
$GPRMC,123058.00,A,3957.16884,N,07511.49250,W,0.844,261.78,270412,,,A*72
$GPRMC,123057.00,A,3957.16889,N,07511.49229,W,0.094,260.62,270412,,,A*71
$GPRMC,123056.00,A,3957.16896,N,07511.49224,W,0.001,,270412,,,A*61
$GPRMC,123059.00,A,3957.16892,N,07511.49309,W,2.328,286.59,270412,,,A*70
$GPRMC,123100.00,A,3957.16920,N,07511.49419,W,4.022,293.63,270412,,,A*71
$GPRMC,123101.00,A,3957.16958,N,07511.49593,W,5.494,291.05,270412,,,A*76
$GPRMC,123102.00,A,3957.17022,N,07511.49796,W,6.470,295.13,270412,,,A*7D
$GPRMC,123103.00,A,3957.17035,N,07511.50054,W,5.933,279.69,270412,,,A*7D
$GPRMC,123104.00,A,3957.17088,N,07511.50175,W,3.105,278.06,270412,,,A*7D
$GPRMC,123105.00,A,3957.17087,N,07511.50253,W,1.045,277.95,270412,,,A*76
$GPRMC,123106.00,A,3957.17074,N,07511.50284,W,0.055,277.57,270412,,,A*7D
$GPRMC,123107.00,A,3957.17060,N,07511.50302,W,0.014,,270412,,,A*6D
$GPRMC,123108.00,A,3957.17044,N,07511.50326,W,0.288,277.36,270412,,,A*7C
$GPRMC,123109.00,A,3957.17043,N,07511.50376,W,1.925,277.52,270412,,,A*70
$GPRMC,123110.00,A,3957.17052,N,07511.50505,W,4.281,284.10,270412,,,A*70
$GPRMC,123111.00,A,3957.17083,N,07511.50709,W,6.490,285.82,270412,,,A*7D
$GPRMC,123112.00,A,3957.17121,N,07511.50975,W,7.785,283.25,270412,,,A*7F
$GPRMC,123113.00,A,3957.17190,N,07511.51336,W,10.505,285.43,270412,,,A*42
$GPRMC,123114.00,A,3957.17258,N,07511.51719,W,10.759,284.79,270412,,,A*48
$GPRMC,123115.00,A,3957.17282,N,07511.52218,W,13.087,279.40,270412,,,A*46
$GPRMC,123116.00,A,3957.17348,N,07511.52738,W,14.630,278.55,270412,,,A*4D
$GPRMC,123117.00,A,3957.17418,N,07511.53294,W,15.847,280.44,270412,,,A*44
$GPRMC,123118.00,A,3957.17494,N,07511.53896,W,17.106,280.47,270412,,,A*4A
$GPRMC,123119.00,A,3957.17564,N,07511.54526,W,17.450,279.09,270412,,,A*4E
$GPRMC,123121.00,A,3957.17763,N,07511.55906,W,19.383,281.46,270412,,,A*44
$GPRMC,123120.00,A,3957.17651,N,07511.55217,W,18.970,279.71,270412,,,A*4A
$GPRMC,123122.00,A,3957.17882,N,07511.56602,W,19.594,281.56,270412,,,A*4E
$GPRMC,123123.00,A,3957.17977,N,07511.57335,W,20.224,280.48,270412,,,A*4C
$GPRMC,123124.00,A,3957.18106,N,07511.58055,W,20.532,280.42,270412,,,A*4A
$GPRMC,123125.00,A,3957.18172,N,07511.58814,W,20.369,279.59,270412,,,A*41
$GPRMC,123127.00,A,3957.18408,N,07511.60189,W,18.708,279.54,270412,,,A*48
$GPRMC,123126.00,A,3957.18301,N,07511.59509,W,19.566,280.43,270412,,,A*4A
$GPRMC,123128.00,A,3957.18490,N,07511.60855,W,18.332,279.14,270412,,,A*47
$GPRMC,123129.00,A,3957.18558,N,07511.61535,W,18.282,278.93,270412,,,A*4D
$GPRMC,123130.00,A,3957.18605,N,07511.62212,W,18.151,278.94,270412,,,A*45
$GPRMC,123131.00,A,3957.18675,N,07511.62893,W,18.776,280.44,270412,,,A*49
$GPRMC,123132.00,A,3957.18806,N,07511.63530,W,17.995,280.77,270412,,,A*49
$GPRMC,123133.00,A,3957.18950,N,07511.64126,W,16.972,280.39,270412,,,A*4C
$GPRMC,123134.00,A,3957.19053,N,07511.64697,W,15.573,279.11,270412,,,A*4F
$GPRMC,123135.00,A,3957.19120,N,07511.65217,W,13.687,278.78,270412,,,A*46
$GPRMC,123136.00,A,3957.19176,N,07511.65653,W,11.051,277.51,270412,,,A*49
$GPRMC,123137.00,A,3957.19154,N,07511.66024,W,7.515,275.53,270412,,,A*7F
$GPRMC,123138.00,A,3957.19141,N,07511.66254,W,4.335,271.99,270412,,,A*74
$GPRMC,123139.00,A,3957.19150,N,07511.66387,W,2.827,279.11,270412,,,A*7C
$GPRMC,123140.00,A,3957.19135,N,07511.66480,W,1.560,279.42,270412,,,A*7A
$GPRMC,123141.00,A,3957.19125,N,07511.66515,W,0.338,280.42,270412,,,A*7B
$GPRMC,123142.00,A,3957.19111,N,07511.66522,W,0.065,282.62,270412,,,A*70
$GPRMC,123143.00,A,3957.19095,N,07511.66525,W,0.023,285.51,270412,,,A*7E
$GPRMC,123144.00,A,3957.19078,N,07511.66528,W,0.012,,270412,,,A*60
$GPRMC,123145.00,A,3957.19060,N,07511.66532,W,0.016,,270412,,,A*67
$GPRMC,123146.00,A,3957.19044,N,07511.66535,W,0.024,288.57,270412,,,A*7A
$GPRMC,123147.00,A,3957.19027,N,07511.66537,W,0.012,,270412,,,A*67
$GPRMC,123148.00,A,3957.19010,N,07511.66538,W,0.010,,270412,,,A*61
$GPRMC,123149.00,A,3957.18995,N,07511.66539,W,0.008,,270412,,,A*6D
$GPRMC,123150.00,A,3957.18978,N,07511.66539,W,0.003,,270412,,,A*6D
$GPRMC,123151.00,A,3957.18962,N,07511.66539,W,0.006,,270412,,,A*62
$GPRMC,123152.00,A,3957.18948,N,07511.66536,W,0.008,,270412,,,A*68
$GPRMC,123153.00,A,3957.18934,N,07511.66533,W,0.003,,270412,,,A*6C
$GPRMC,123155.00,A,3957.18922,N,07511.66528,W,0.249,287.99,270412,,,A*78
$GPRMC,123154.00,A,3957.18922,N,07511.66530,W,0.008,,270412,,,A*64
$GPRMC,123156.00,A,3957.18952,N,07511.66519,W,0.512,287.35,270412,,,A*71
$GPRMC,123158.00,A,3957.18945,N,07511.66542,W,0.029,286.82,270412,,,A*77
$GPRMC,123157.00,A,3957.18949,N,07511.66534,W,0.334,287.32,270412,,,A*70
$GPRMC,123159.00,A,3957.18941,N,07511.66545,W,0.004,,270412,,,A*62
$GPRMC,123200.00,A,3957.18938,N,07511.66548,W,0.005,,270412,,,A*6F
$GPRMC,123201.00,A,3957.18932,N,07511.66550,W,0.214,279.38,270412,,,A*76
$GPRMC,123202.00,A,3957.18930,N,07511.66553,W,0.014,,270412,,,A*6F
$GPRMC,123204.00,A,3957.18925,N,07511.66561,W,0.007,,270412,,,A*6E
$GPRMC,123203.00,A,3957.18926,N,07511.66557,W,0.018,,270412,,,A*61
$GPRMC,123205.00,A,3957.18931,N,07511.66564,W,0.005,,270412,,,A*6D
$GPRMC,123207.00,A,3957.18941,N,07511.66567,W,0.007,,270412,,,A*69
$GPRMC,123206.00,A,3957.18935,N,07511.66566,W,0.007,,270412,,,A*6A
$GPRMC,123208.00,A,3957.18947,N,07511.66567,W,0.003,,270412,,,A*64
$GPRMC,123209.00,A,3957.18953,N,07511.66566,W,0.002,,270412,,,A*60
$GPRMC,123210.00,A,3957.18958,N,07511.66566,W,0.031,281.89,270412,,,A*77
$GPRMC,123211.00,A,3957.18962,N,07511.66565,W,0.014,,270412,,,A*6F
$GPRMC,123212.00,A,3957.18967,N,07511.66565,W,0.001,,270412,,,A*6D
$GPRMC,123213.00,A,3957.18971,N,07511.66564,W,0.005,,270412,,,A*6E
$GPRMC,123214.00,A,3957.18975,N,07511.66564,W,0.003,,270412,,,A*6B
$GPRMC,123215.00,A,3957.18977,N,07511.66563,W,0.002,,270412,,,A*6E
$GPRMC,123216.00,A,3957.18979,N,07511.66562,W,0.005,,270412,,,A*65
$GPRMC,123217.00,A,3957.18979,N,07511.66562,W,0.006,,270412,,,A*67
$GPRMC,123218.00,A,3957.18977,N,07511.66562,W,0.006,,270412,,,A*66
$GPRMC,123219.00,A,3957.18975,N,07511.66563,W,0.004,,270412,,,A*66
$GPRMC,123220.00,A,3957.18974,N,07511.66564,W,0.003,,270412,,,A*6D
$GPRMC,123221.00,A,3957.18971,N,07511.66565,W,0.011,,270412,,,A*6B
$GPRMC,123222.00,A,3957.18969,N,07511.66566,W,0.004,,270412,,,A*66
$GPRMC,123223.00,A,3957.18967,N,07511.66568,W,0.004,,270412,,,A*67
$GPRMC,123224.00,A,3957.18964,N,07511.66569,W,0.006,,270412,,,A*60
$GPRMC,123225.00,A,3957.18961,N,07511.66570,W,0.009,,270412,,,A*63
$GPRMC,123226.00,A,3957.18959,N,07511.66571,W,0.009,,270412,,,A*6A
$GPRMC,123228.00,A,3957.18952,N,07511.66576,W,0.096,283.95,270412,,,A*75
$GPRMC,123227.00,A,3957.18955,N,07511.66573,W,0.015,,270412,,,A*68
$GPRMC,123229.00,A,3957.18949,N,07511.66578,W,0.019,,270412,,,A*6C
$GPRMC,123230.00,A,3957.18945,N,07511.66580,W,0.016,,270412,,,A*60
$GPRMC,123231.00,A,3957.18941,N,07511.66582,W,0.032,286.29,270412,,,A*78
$GPRMC,123232.00,A,3957.18936,N,07511.66583,W,0.029,288.58,270412,,,A*78
$GPRMC,123233.00,A,3957.18932,N,07511.66587,W,0.021,291.62,270412,,,A*70
$GPRMC,123234.00,A,3957.18926,N,07511.66590,W,0.012,,270412,,,A*64
$GPRMC,123236.00,A,3957.18921,N,07511.66598,W,0.292,290.68,270412,,,A*78
$GPRMC,123235.00,A,3957.18920,N,07511.66593,W,0.007,,270412,,,A*64
$GPRMC,123237.00,A,3957.18920,N,07511.66625,W,1.043,290.07,270412,,,A*7B
$GPRMC,123238.00,A,3957.18927,N,07511.66700,W,2.985,281.29,270412,,,A*79
$GPRMC,123239.00,A,3957.18944,N,07511.66843,W,4.846,279.80,270412,,,A*79
$GPRMC,123240.00,A,3957.18970,N,07511.67053,W,6.701,280.98,270412,,,A*79
$GPRMC,123241.00,A,3957.19024,N,07511.67283,W,6.891,281.46,270412,,,A*7A
$GPRMC,123242.00,A,3957.19098,N,07511.67611,W,9.548,283.50,270412,,,A*72
$GPRMC,123243.00,A,3957.19133,N,07511.67938,W,8.969,276.94,270412,,,A*7B
$GPRMC,123244.00,A,3957.19135,N,07511.68407,W,12.003,273.01,270412,,,A*43
$GPRMC,123245.00,A,3957.19252,N,07511.68805,W,12.609,284.28,270412,,,A*41
$GPRMC,123246.00,A,3957.19368,N,07511.69223,W,12.371,288.06,270412,,,A*4F
$GPRMC,123247.00,A,3957.19456,N,07511.69683,W,12.894,287.74,270412,,,A*40
$GPRMC,123248.00,A,3957.19534,N,07511.70267,W,14.903,283.65,270412,,,A*41
$GPRMC,123249.00,A,3957.19545,N,07511.70901,W,16.272,278.27,270412,,,A*40
$GPRMC,123250.00,A,3957.19708,N,07511.71465,W,17.325,281.41,270412,,,A*49
$GPRMC,123251.00,A,3957.19832,N,07511.72079,W,17.317,280.45,270412,,,A*40
$GPRMC,123252.00,A,3957.19960,N,07511.72672,W,16.955,280.97,270412,,,A*4A
$GPRMC,123253.00,A,3957.20076,N,07511.73251,W,16.449,281.79,270412,,,A*4A
$GPRMC,123254.00,A,3957.20166,N,07511.73815,W,15.557,281.31,270412,,,A*46
$GPRMC,123255.00,A,3957.20268,N,07511.74319,W,13.967,279.68,270412,,,A*48
$GPRMC,123256.00,A,3957.20414,N,07511.74751,W,13.282,279.82,270412,,,A*4A
$GPRMC,123257.00,A,3957.20538,N,07511.75160,W,12.219,280.85,270412,,,A*43
$GPRMC,123258.00,A,3957.20682,N,07511.75516,W,10.681,284.62,270412,,,A*41
$GPRMC,123259.00,A,3957.20804,N,07511.75836,W,9.731,282.94,270412,,,A*72
$GPRMC,123300.00,A,3957.20910,N,07511.76128,W,8.222,285.44,270412,,,A*72
$GPRMC,123301.00,A,3957.21009,N,07511.76366,W,7.253,282.66,270412,,,A*75
$GPRMC,123302.00,A,3957.21049,N,07511.76638,W,6.714,285.81,270412,,,A*75
$GPRMC,123304.00,A,3957.21094,N,07511.77054,W,5.052,276.32,270412,,,A*7C
$GPRMC,123303.00,A,3957.21111,N,07511.76834,W,6.212,282.07,270412,,,A*70
$GPRMC,123305.00,A,3957.21097,N,07511.77181,W,2.953,272.98,270412,,,A*7C
$GPRMC,123306.00,A,3957.21141,N,07511.77228,W,1.885,273.07,270412,,,A*7B
$GPRMC,123307.00,A,3957.21153,N,07511.77262,W,0.723,273.39,270412,,,A*78
$GPRMC,123309.00,A,3957.21171,N,07511.77262,W,0.120,280.23,270412,,,A*74
$GPRMC,123308.00,A,3957.21166,N,07511.77265,W,0.071,276.79,270412,,,A*77
$GPRMC,123310.00,A,3957.21188,N,07511.77256,W,0.150,283.73,270412,,,A*7C
$GPRMC,123312.00,A,3957.21213,N,07511.77245,W,0.343,293.62,270412,,,A*7C
$GPRMC,123311.00,A,3957.21193,N,07511.77250,W,0.221,290.42,270412,,,A*74
$GPRMC,123313.00,A,3957.21226,N,07511.77261,W,0.983,293.62,270412,,,A*7B
$GPRMC,123314.00,A,3957.21234,N,07511.77280,W,0.432,293.52,270412,,,A*74
$GPRMC,123315.00,A,3957.21231,N,07511.77290,W,0.131,293.95,270412,,,A*7C
$GPRMC,123316.00,A,3957.21233,N,07511.77309,W,1.002,293.55,270412,,,A*70
$GPRMC,123317.00,A,3957.21262,N,07511.77354,W,2.662,282.13,270412,,,A*7C
$GPRMC,123318.00,A,3957.21308,N,07511.77461,W,4.581,285.20,270412,,,A*70
$GPRMC,123319.00,A,3957.21373,N,07511.77631,W,6.315,284.92,270412,,,A*7B
$GPRMC,123320.00,A,3957.21447,N,07511.77864,W,8.097,285.31,270412,,,A*70
$GPRMC,123321.00,A,3957.21524,N,07511.78170,W,10.034,283.66,270412,,,A*42
$GPRMC,123322.00,A,3957.21603,N,07511.78540,W,11.384,283.69,270412,,,A*46
$GPRMC,123323.00,A,3957.21709,N,07511.78933,W,11.862,286.67,270412,,,A*4C
$GPRMC,123324.00,A,3957.21769,N,07511.79395,W,12.346,286.56,270412,,,A*46
$GPRMC,123325.00,A,3957.21705,N,07511.79958,W,12.496,283.56,270412,,,A*49
$GPRMC,123326.00,A,3957.21497,N,07511.80619,W,13.728,270.39,270412,,,A*4C
$GPRMC,123327.00,A,3957.21448,N,07511.81169,W,13.570,274.55,270412,,,A*4F
$GPRMC,123328.00,A,3957.21489,N,07511.81652,W,13.449,277.70,270412,,,A*4D
$GPRMC,123329.00,A,3957.21560,N,07511.82132,W,13.643,280.59,270412,,,A*43
$GPRMC,123330.00,A,3957.21659,N,07511.82611,W,14.125,282.18,270412,,,A*43
$GPRMC,123331.00,A,3957.21765,N,07511.83091,W,14.055,280.92,270412,,,A*45
$GPRMC,123332.00,A,3957.21787,N,07511.83691,W,15.403,281.18,270412,,,A*49
$GPRMC,123333.00,A,3957.21834,N,07511.84304,W,16.492,279.34,270412,,,A*43
$GPRMC,123334.00,A,3957.21863,N,07511.84952,W,17.038,280.55,270412,,,A*4B
$GPRMC,123335.00,A,3957.21785,N,07511.85691,W,16.980,279.30,270412,,,A*42
$GPRMC,123336.00,A,3957.21847,N,07511.86300,W,17.095,278.93,270412,,,A*4A
$GPRMC,123337.00,A,3957.21911,N,07511.86903,W,17.090,278.72,270412,,,A*4A
$GPRMC,123338.00,A,3957.21958,N,07511.87492,W,16.671,278.02,270412,,,A*43
$GPRMC,123339.00,A,3957.21856,N,07511.88139,W,15.684,277.31,270412,,,A*40
$GPRMC,123341.00,A,3957.21866,N,07511.89174,W,12.829,272.31,270412,,,A*4F
$GPRMC,123340.00,A,3957.21870,N,07511.88687,W,14.666,275.44,270412,,,A*45
$GPRMC,123342.00,A,3957.21762,N,07511.89700,W,12.739,269.54,270412,,,A*45
$GPRMC,123343.00,A,3957.21786,N,07511.90038,W,10.010,269.87,270412,,,A*4A
$GPRMC,123345.00,A,3957.21875,N,07511.90503,W,4.792,265.93,270412,,,A*73
$GPRMC,123344.00,A,3957.21865,N,07511.90300,W,7.464,271.82,270412,,,A*7A
$GPRMC,123346.00,A,3957.21852,N,07511.90656,W,3.464,261.49,270412,,,A*78
$GPRMC,123349.00,A,3957.21741,N,07511.90898,W,0.232,254.83,270412,,,A*70
$GPRMC,123347.00,A,3957.21842,N,07511.90751,W,2.161,255.94,270412,,,A*78
$GPRMC,123348.00,A,3957.21787,N,07511.90849,W,0.835,256.30,270412,,,A*70
$GPRMC,123350.00,A,3957.21726,N,07511.90939,W,0.287,253.29,270412,,,A*7A
$GPRMC,123351.00,A,3957.21721,N,07511.90976,W,0.258,251.46,270412,,,A*7E
$GPRMC,123352.00,A,3957.21702,N,07511.91016,W,0.348,247.38,270412,,,A*7C
$GPRMC,123353.00,A,3957.21680,N,07511.91059,W,0.284,245.74,270412,,,A*76
$GPRMC,123354.00,A,3957.21617,N,07511.91136,W,0.315,244.26,270412,,,A*78
$GPRMC,123355.00,A,3957.21577,N,07511.91200,W,0.216,242.68,270412,,,A*74
$GPRMC,123356.00,A,3957.21544,N,07511.91255,W,0.184,241.76,270412,,,A*73
$GPRMC,123357.00,A,3957.21506,N,07511.91312,W,0.263,240.04,270412,,,A*78
$GPRMC,123358.00,A,3957.21478,N,07511.91360,W,0.127,241.23,270412,,,A*7D
$GPRMC,123359.00,A,3957.21458,N,07511.91399,W,0.178,240.52,270412,,,A*75
$GPRMC,123400.00,A,3957.21433,N,07511.91440,W,0.244,239.43,270412,,,A*72
$GPRMC,123401.00,A,3957.21410,N,07511.91478,W,0.235,238.33,270412,,,A*79
$GPRMC,123402.00,A,3957.21389,N,07511.91514,W,0.257,237.17,270412,,,A*7B
$GPRMC,123403.00,A,3957.21385,N,07511.91531,W,0.221,236.10,270412,,,A*76
$GPRMC,123404.00,A,3957.21381,N,07511.91548,W,0.238,235.68,270412,,,A*7F
$GPRMC,123405.00,A,3957.21376,N,07511.91556,W,0.247,235.28,270412,,,A*75
$GPRMC,123406.00,A,3957.21371,N,07511.91564,W,0.244,234.97,270412,,,A*76
$GPRMC,123407.00,A,3957.21367,N,07511.91569,W,0.247,234.61,270412,,,A*77
$GPRMC,123408.00,A,3957.21359,N,07511.91577,W,0.279,234.60,270412,,,A*76
$GPRMC,123409.00,A,3957.21349,N,07511.91588,W,0.269,234.57,270412,,,A*73
$GPRMC,123410.00,A,3957.21340,N,07511.91601,W,0.269,234.61,270412,,,A*75
$GPRMC,123411.00,A,3957.21331,N,07511.91611,W,0.245,234.47,270412,,,A*79
$GPRMC,123412.00,A,3957.21322,N,07511.91626,W,0.451,235.18,270412,,,A*74
$GPRMC,123413.00,A,3957.21316,N,07511.91635,W,0.275,235.27,270412,,,A*7C
$GPRMC,123414.00,A,3957.21312,N,07511.91638,W,0.307,235.54,270412,,,A*72
$GPRMC,123415.00,A,3957.21310,N,07511.91638,W,0.241,235.06,270412,,,A*75
$GPRMC,123416.00,A,3957.21306,N,07511.91642,W,0.261,235.29,270412,,,A*73
$GPRMC,123417.00,A,3957.21304,N,07511.91643,W,0.243,235.31,270412,,,A*78
$GPRMC,123418.00,A,3957.21300,N,07511.91647,W,0.223,235.32,270412,,,A*72
$GPRMC,123419.00,A,3957.21299,N,07511.91648,W,0.215,235.09,270412,,,A*70
$GPRMC,123420.00,A,3957.21296,N,07511.91649,W,0.207,235.04,270412,,,A*7A
$GPRMC,123422.00,A,3957.21288,N,07511.91707,W,1.666,239.89,270412,,,A*77
$GPRMC,123421.00,A,3957.21287,N,07511.91662,W,0.329,236.99,270412,,,A*78
$GPRMC,123423.00,A,3957.21320,N,07511.91801,W,3.974,289.47,270412,,,A*7B
$GPRMC,123424.00,A,3957.21348,N,07511.91961,W,4.391,289.64,270412,,,A*72
$GPRMC,123426.00,A,3957.21511,N,07511.92454,W,8.747,288.46,270412,,,A*70
$GPRMC,123425.00,A,3957.21416,N,07511.92175,W,6.401,291.23,270412,,,A*77
$GPRMC,123427.00,A,3957.21619,N,07511.92706,W,8.810,286.81,270412,,,A*76
$GPRMC,123428.00,A,3957.21629,N,07511.93148,W,11.769,277.39,270412,,,A*43
$GPRMC,123430.00,A,3957.21761,N,07511.94026,W,13.617,274.69,270412,,,A*45
$GPRMC,123429.00,A,3957.21703,N,07511.93580,W,13.199,275.80,270412,,,A*40
$GPRMC,123432.00,A,3957.21921,N,07511.95004,W,14.832,278.67,270412,,,A*40
$GPRMC,123431.00,A,3957.21835,N,07511.94498,W,14.232,277.25,270412,,,A*44
$GPRMC,123433.00,A,3957.22031,N,07511.95502,W,15.499,278.81,270412,,,A*4D
$GPRMC,123435.00,A,3957.22369,N,07511.96608,W,15.843,284.76,270412,,,A*4F
$GPRMC,123434.00,A,3957.22199,N,07511.96088,W,16.653,282.45,270412,,,A*47
$GPRMC,123436.00,A,3957.22511,N,07511.97131,W,15.409,283.50,270412,,,A*48
$GPRMC,123437.00,A,3957.22585,N,07511.97650,W,14.390,281.82,270412,,,A*4F
$GPRMC,123438.00,A,3957.22684,N,07511.98105,W,13.202,279.57,270412,,,A*48
$GPRMC,123439.00,A,3957.22755,N,07511.98511,W,11.163,278.92,270412,,,A*4B
$GPRMC,123440.00,A,3957.22806,N,07511.98850,W,9.235,275.82,270412,,,A*71
$GPRMC,123441.00,A,3957.22853,N,07511.99115,W,7.289,276.34,270412,,,A*7E
$GPRMC,123442.00,A,3957.22897,N,07511.99280,W,4.615,278.02,270412,,,A*73
$GPRMC,123443.00,A,3957.22909,N,07511.99397,W,2.908,275.48,270412,,,A*75
$GPRMC,123444.00,A,3957.22915,N,07511.99480,W,2.294,274.80,270412,,,A*75
$GPRMC,123445.00,A,3957.22930,N,07511.99552,W,2.425,275.98,270412,,,A*79
$GPRMC,123446.00,A,3957.22947,N,07511.99650,W,3.425,283.12,270412,,,A*71
$GPRMC,123447.00,A,3957.22969,N,07511.99787,W,4.624,280.18,270412,,,A*7A
$GPRMC,123448.00,A,3957.22993,N,07511.99975,W,5.855,280.25,270412,,,A*74
$GPRMC,123449.00,A,3957.23034,N,07512.00226,W,7.578,280.15,270412,,,A*7D
$GPRMC,123450.00,A,3957.23072,N,07512.00511,W,7.846,280.09,270412,,,A*79
$GPRMC,123451.00,A,3957.23118,N,07512.00834,W,8.662,280.64,270412,,,A*73
$GPRMC,123453.00,A,3957.23227,N,07512.01800,W,12.912,278.95,270412,,,A*42
$GPRMC,123452.00,A,3957.23177,N,07512.01337,W,12.513,279.66,270412,,,A*4A
$GPRMC,123454.00,A,3957.23291,N,07512.02264,W,13.167,279.56,270412,,,A*46
$GPRMC,123456.00,A,3957.23427,N,07512.03417,W,16.625,278.81,270412,,,A*43
$GPRMC,123455.00,A,3957.23356,N,07512.02833,W,15.496,279.06,270412,,,A*4D
$GPRMC,123457.00,A,3957.23502,N,07512.04023,W,17.036,278.96,270412,,,A*43
$GPRMC,123458.00,A,3957.23579,N,07512.04636,W,17.188,279.18,270412,,,A*41
$GPRMC,123459.00,A,3957.23657,N,07512.05262,W,17.622,279.16,270412,,,A*42
$GPRMC,123500.00,A,3957.23737,N,07512.05898,W,17.778,279.22,270412,,,A*4E
$GPRMC,123501.00,A,3957.23817,N,07512.06537,W,17.903,278.79,270412,,,A*44
$GPRMC,123502.00,A,3957.23919,N,07512.07180,W,17.913,278.53,270412,,,A*48
$GPRMC,123503.00,A,3957.24039,N,07512.07819,W,17.879,278.49,270412,,,A*4A
$GPRMC,123504.00,A,3957.24171,N,07512.08454,W,17.912,278.83,270412,,,A*40
$GPRMC,123505.00,A,3957.24256,N,07512.09084,W,17.680,279.12,270412,,,A*42
$GPRMC,123506.00,A,3957.24345,N,07512.09714,W,17.560,279.35,270412,,,A*44
$GPRMC,123507.00,A,3957.24396,N,07512.10363,W,17.521,278.21,270412,,,A*46
$GPRMC,123508.00,A,3957.24471,N,07512.10992,W,17.418,278.88,270412,,,A*4B
$GPRMC,123509.00,A,3957.24545,N,07512.11619,W,17.455,278.97,270412,,,A*46
$GPRMC,123510.00,A,3957.24622,N,07512.12246,W,17.374,279.23,270412,,,A*4B
$GPRMC,123511.00,A,3957.24705,N,07512.12870,W,17.329,279.43,270412,,,A*4F
$GPRMC,123512.00,A,3957.24795,N,07512.13496,W,17.342,279.22,270412,,,A*4A
$GPRMC,123513.00,A,3957.24857,N,07512.14132,W,17.541,278.58,270412,,,A*4F
$GPRMC,123514.00,A,3957.24926,N,07512.14769,W,17.549,279.60,270412,,,A*45
$GPRMC,123515.00,A,3957.24976,N,07512.15436,W,17.781,279.22,270412,,,A*49
$GPRMC,123516.00,A,3957.25027,N,07512.16116,W,18.077,278.84,270412,,,A*4E
$GPRMC,123517.00,A,3957.25072,N,07512.16896,W,19.653,278.04,270412,,,A*47
$GPRMC,123518.00,A,3957.25160,N,07512.17640,W,20.576,278.51,270412,,,A*40
$GPRMC,123519.00,A,3957.25266,N,07512.18389,W,20.991,280.14,270412,,,A*48
$GPRMC,123520.00,A,3957.25351,N,07512.19139,W,20.677,279.39,270412,,,A*41
$GPRMC,123522.00,A,3957.25523,N,07512.20617,W,20.684,279.44,270412,,,A*47
$GPRMC,123521.00,A,3957.25434,N,07512.19878,W,20.445,279.12,270412,,,A*42
$GPRMC,123523.00,A,3957.25614,N,07512.21367,W,20.901,279.16,270412,,,A*47
$GPRMC,123524.00,A,3957.25708,N,07512.22140,W,21.290,278.99,270412,,,A*4C
$GPRMC,123525.00,A,3957.25809,N,07512.22912,W,21.429,279.30,270412,,,A*4A
$GPRMC,123526.00,A,3957.25919,N,07512.23705,W,21.764,279.58,270412,,,A*44
$GPRMC,123527.00,A,3957.26006,N,07512.24471,W,21.340,279.21,270412,,,A*4A
$GPRMC,123528.00,A,3957.26119,N,07512.25212,W,20.928,280.29,270412,,,A*43
$GPRMC,123529.00,A,3957.26185,N,07512.25969,W,20.363,278.82,270412,,,A*43
$GPRMC,123530.00,A,3957.26274,N,07512.26690,W,19.711,279.40,270412,,,A*48
$GPRMC,123531.00,A,3957.26375,N,07512.27407,W,20.133,281.81,270412,,,A*42
$GPRMC,123532.00,A,3957.26468,N,07512.28040,W,17.682,280.73,270412,,,A*47
$GPRMC,123533.00,A,3957.26591,N,07512.28596,W,15.895,280.43,270412,,,A*46
$GPRMC,123534.00,A,3957.26653,N,07512.29130,W,13.665,281.10,270412,,,A*45
$GPRMC,123535.00,A,3957.26726,N,07512.29579,W,11.294,282.86,270412,,,A*4A
$GPRMC,123536.00,A,3957.26786,N,07512.29966,W,9.693,289.15,270412,,,A*7A
$GPRMC,123537.00,A,3957.26901,N,07512.30260,W,8.878,305.17,270412,,,A*72
$GPRMC,123538.00,A,3957.27072,N,07512.30482,W,8.500,327.11,270412,,,A*7F
$GPRMC,123539.00,A,3957.27267,N,07512.30599,W,7.245,341.07,270412,,,A*7D
$GPRMC,123540.00,A,3957.27550,N,07512.30640,W,10.037,355.09,270412,,,A*4D
$GPRMC,123541.00,A,3957.27868,N,07512.30623,W,11.315,1.37,270412,,,A*42
$GPRMC,123542.00,A,3957.28182,N,07512.30528,W,11.724,9.51,270412,,,A*45
$GPRMC,123543.00,A,3957.28493,N,07512.30514,W,12.069,7.63,270412,,,A*4C
$GPRMC,123544.00,A,3957.28829,N,07512.30457,W,12.909,9.46,270412,,,A*46
$GPRMC,123545.00,A,3957.29169,N,07512.30362,W,12.674,9.26,270412,,,A*49
$GPRMC,123546.00,A,3957.29532,N,07512.30351,W,12.505,10.02,270412,,,A*7B
$GPRMC,123547.00,A,3957.29882,N,07512.30260,W,12.597,10.89,270412,,,A*77
$GPRMC,123548.00,A,3957.30237,N,07512.30167,W,12.824,10.37,270412,,,A*70
$GPRMC,123550.00,A,3957.30926,N,07512.29997,W,12.460,8.53,270412,,,A*4A
$GPRMC,123549.00,A,3957.30577,N,07512.30080,W,12.650,9.33,270412,,,A*4B
$GPRMC,123551.00,A,3957.31264,N,07512.29927,W,12.453,8.35,270412,,,A*4C
$GPRMC,123552.00,A,3957.31593,N,07512.29848,W,12.041,8.99,270412,,,A*49
$GPRMC,123553.00,A,3957.31916,N,07512.29761,W,11.903,9.95,270412,,,A*4C
$GPRMC,123554.00,A,3957.32156,N,07512.29709,W,10.295,10.01,270412,,,A*7A
$GPRMC,123555.00,A,3957.32427,N,07512.29673,W,10.039,9.03,270412,,,A*4A
$GPRMC,123556.00,A,3957.32682,N,07512.29628,W,9.461,8.94,270412,,,A*74
$GPRMC,123558.00,A,3957.32815,N,07512.29594,W,3.353,6.45,270412,,,A*70
$GPRMC,123557.00,A,3957.32724,N,07512.29610,W,4.638,10.46,270412,,,A*46
$GPRMC,123600.00,A,3957.32969,N,07512.29568,W,1.448,8.08,270412,,,A*7F
$GPRMC,123559.00,A,3957.32887,N,07512.29565,W,2.552,8.09,270412,,,A*74
$GPRMC,123601.00,A,3957.33011,N,07512.29569,W,0.502,8.16,270412,,,A*79
$GPRMC,123602.00,A,3957.33037,N,07512.29578,W,0.027,7.53,270412,,,A*72
$GPRMC,123603.00,A,3957.33044,N,07512.29579,W,0.006,,270412,,,A*6A
$GPRMC,123604.00,A,3957.33050,N,07512.29581,W,0.106,5.17,270412,,,A*73
$GPRMC,123605.00,A,3957.33066,N,07512.29591,W,0.010,,270412,,,A*6D
$GPRMC,123606.00,A,3957.33082,N,07512.29594,W,0.229,5.35,270412,,,A*74
$GPRMC,123607.00,A,3957.33114,N,07512.29594,W,1.144,5.60,270412,,,A*72
$GPRMC,123608.00,A,3957.33163,N,07512.29573,W,2.693,9.00,270412,,,A*70
$GPRMC,123609.00,A,3957.33260,N,07512.29542,W,4.476,9.65,270412,,,A*7F
$GPRMC,123610.00,A,3957.33403,N,07512.29502,W,6.054,10.06,270412,,,A*4B
$GPRMC,123611.00,A,3957.33592,N,07512.29456,W,7.593,9.10,270412,,,A*73
$GPRMC,123612.00,A,3957.33797,N,07512.29410,W,7.653,8.86,270412,,,A*74
$GPRMC,123613.00,A,3957.34011,N,07512.29368,W,7.939,7.89,270412,,,A*70
$GPRMC,123614.00,A,3957.34233,N,07512.29331,W,8.244,6.67,270412,,,A*76
$GPRMC,123615.00,A,3957.34505,N,07512.29241,W,8.971,10.40,270412,,,A*4C
$GPRMC,123616.00,A,3957.34774,N,07512.29123,W,9.489,13.15,270412,,,A*44
$GPRMC,123617.00,A,3957.35012,N,07512.28984,W,9.125,20.77,270412,,,A*40
$GPRMC,123618.00,A,3957.35220,N,07512.28796,W,8.801,33.50,270412,,,A*48
$GPRMC,123619.00,A,3957.35374,N,07512.28526,W,9.066,53.25,270412,,,A*4C
$GPRMC,123620.00,A,3957.35511,N,07512.28083,W,10.271,75.09,270412,,,A*7F
$GPRMC,123621.00,A,3957.35450,N,07512.27583,W,11.342,94.80,270412,,,A*7E
$GPRMC,123622.00,A,3957.35376,N,07512.27087,W,13.208,100.50,270412,,,A*43
$GPRMC,123623.00,A,3957.35314,N,07512.26543,W,15.012,97.76,270412,,,A*7E
$GPRMC,123624.00,A,3957.35306,N,07512.25941,W,16.396,97.06,270412,,,A*7C
$GPRMC,123625.00,A,3957.35288,N,07512.25265,W,17.535,97.21,270412,,,A*7C
$GPRMC,123626.00,A,3957.35236,N,07512.24611,W,17.264,99.86,270412,,,A*7C
$GPRMC,123627.00,A,3957.35236,N,07512.23957,W,17.184,98.38,270412,,,A*7E
$GPRMC,123628.00,A,3957.35169,N,07512.23340,W,17.304,99.19,270412,,,A*7C
$GPRMC,123629.00,A,3957.35161,N,07512.22688,W,17.591,99.02,270412,,,A*75
$GPRMC,123630.00,A,3957.35152,N,07512.22038,W,17.305,98.90,270412,,,A*71
$GPRMC,123631.00,A,3957.35074,N,07512.21434,W,16.775,99.08,270412,,,A*7C
$GPRMC,123632.00,A,3957.35137,N,07512.20794,W,16.275,98.80,270412,,,A*75
$GPRMC,123633.00,A,3957.35142,N,07512.20168,W,15.845,99.42,270412,,,A*76
$GPRMC,123634.00,A,3957.35030,N,07512.19632,W,15.381,100.99,270412,,,A*43
$GPRMC,123635.00,A,3957.34884,N,07512.19128,W,14.898,101.91,270412,,,A*43
$GPRMC,123636.00,A,3957.34723,N,07512.18662,W,14.310,101.58,270412,,,A*44
$GPRMC,123637.00,A,3957.34588,N,07512.18217,W,13.058,101.86,270412,,,A*4B
$GPRMC,123638.00,A,3957.34479,N,07512.17830,W,10.976,102.37,270412,,,A*44
$GPRMC,123639.00,A,3957.34379,N,07512.17514,W,8.825,103.30,270412,,,A*71
$GPRMC,123640.00,A,3957.34240,N,07512.17307,W,6.890,123.34,270412,,,A*76
$GPRMC,123641.00,A,3957.34080,N,07512.17194,W,5.594,152.59,270412,,,A*76
$GPRMC,123642.00,A,3957.33912,N,07512.17176,W,4.641,176.81,270412,,,A*75
$GPRMC,123643.00,A,3957.33758,N,07512.17209,W,4.577,188.28,270412,,,A*7B
$GPRMC,123644.00,A,3957.33598,N,07512.17264,W,5.310,191.43,270412,,,A*7A
$GPRMC,123645.00,A,3957.33434,N,07512.17326,W,5.512,191.43,270412,,,A*7F
$GPRMC,123646.00,A,3957.33277,N,07512.17413,W,5.372,206.51,270412,,,A*72
$GPRMC,123647.00,A,3957.33161,N,07512.17554,W,5.056,234.52,270412,,,A*72
$GPRMC,123648.00,A,3957.33112,N,07512.17738,W,4.657,265.25,270412,,,A*73
$GPRMC,123649.00,A,3957.33111,N,07512.17904,W,3.706,282.23,270412,,,A*7D
$GPRMC,123650.00,A,3957.33123,N,07512.18015,W,1.877,282.45,270412,,,A*79
$GPRMC,123651.00,A,3957.33124,N,07512.18061,W,0.183,282.24,270412,,,A*78
$GPRMC,123652.00,A,3957.33119,N,07512.18074,W,0.140,281.99,270412,,,A*7B
$GPRMC,123654.00,A,3957.33114,N,07512.18108,W,0.021,277.60,270412,,,A*73
$GPRMC,123653.00,A,3957.33117,N,07512.18090,W,0.301,281.85,270412,,,A*74
$GPRMC,123655.00,A,3957.33112,N,07512.18120,W,0.006,,270412,,,A*61
$GPRMC,123656.00,A,3957.33107,N,07512.18130,W,0.004,,270412,,,A*65
$GPRMC,123657.00,A,3957.33103,N,07512.18139,W,0.002,,270412,,,A*6F
$GPRMC,123658.00,A,3957.33103,N,07512.18147,W,0.052,279.28,270412,,,A*74
$GPRMC,123700.00,A,3957.33099,N,07512.18154,W,0.010,,270412,,,A*66
$GPRMC,123659.00,A,3957.33101,N,07512.18151,W,0.010,,270412,,,A*6E
$GPRMC,123701.00,A,3957.33097,N,07512.18159,W,0.022,281.41,270412,,,A*75
$GPRMC,123703.00,A,3957.33095,N,07512.18170,W,0.013,,270412,,,A*6C
$GPRMC,123702.00,A,3957.33096,N,07512.18164,W,0.016,,270412,,,A*6E
$GPRMC,123706.00,A,3957.33096,N,07512.18185,W,0.016,,270412,,,A*65
$GPRMC,123704.00,A,3957.33094,N,07512.18176,W,0.012,,270412,,,A*6D
$GPRMC,123705.00,A,3957.33095,N,07512.18180,W,0.009,,270412,,,A*6E
$GPRMC,123707.00,A,3957.33098,N,07512.18188,W,0.016,,270412,,,A*67
$GPRMC,123708.00,A,3957.33099,N,07512.18190,W,0.018,,270412,,,A*6E
$GPRMC,123709.00,A,3957.33